[
    {
        "name": "Riya Autolink,Bodakdev",
        "state": "Gujarat",
        "city": "Ahmedabad",
        "address": "Near Rajpath Club,SG Highway,Ahmedabad,Gujarat-380054",
        "lattitude": "23.03577",
        "longitude": "72.51",
        "id": "1"
    },
    {
        "name": "Ginger, Vastrapur",
        "state": "Gujarat",
        "city": "Ahmedabad",
        "address": "Behind Himalaya Mall, Drive In Road, Ahmedabad - 380015",
        "lattitude": "23.04626",
        "longitude": "72.53069",
        "id": "2"
    },
    {
        "name": "Westside, Ellisbridge",
        "state": "Gujarat",
        "city": "Ahmedabad",
        "address": "Ground Floor, Abhijeet V, Netaji Rd Ellisbridge Opp. Mayor Bungalow, Ellisbridge, Ahmedabad, Gujarat 380006,+91 79 6661 0190",
        "lattitude": "23.02938",
        "longitude": "72.56142",
        "id": "3"
    },
    {
        "name": "Adishakti - Veeranpalya",
        "state": "Karnataka",
        "city": "Bangalore",
        "address": "#56, Opposite Lumbini Gardens, Veeranna Palya Ring Road , Veeranna Palya, Arabic College Post, Bengaluru, Karnataka - 560045",
        "lattitude": "13.04279",
        "longitude": "77.6093",
        "id": "4"
    },
    {
        "name": "PRERANA MOTORS - RAJAJINAGAR",
        "state": "Karnataka",
        "city": "Bangalore",
        "address": "No.46, 10th Cross Rd, West of Chord Road 2nd Stage, West of Chord Road, IInd Stage, Basaveshwar Nagar, Bengaluru, Karnataka 560079",
        "lattitude": "12.99929",
        "longitude": "77.54963",
        "id": "5"
    },
    {
        "name": "KEY MOTOR VENTURES - Kanakapura",
        "state": "Karnataka",
        "city": "Bangalore",
        "address": "No 71\/1A & 71\/7, Jaraganahalli Village Opp Temple Tree Apartment, Kanakapura Rd, Manjunath Garden, JP Nagar Phase 6, J. P. Nagar, Bengaluru, Karnataka 560078",
        "lattitude": "12.90392",
        "longitude": "77.57349",
        "id": "6"
    },
    {
        "name": "Ginger, Whitefield",
        "state": "Karnataka",
        "city": "Bangalore",
        "address": "128, EPIP Phase II, &, SAP Labs Rd, Opp. KTPO, EPIP Zone, Whitefield, Bengaluru, Karnataka 560066",
        "lattitude": "12.97692",
        "longitude": "77.71861",
        "id": "7"
    },
    {
        "name": "Ginger, Koramangala IRR",
        "state": "Karnataka",
        "city": "Bangalore",
        "address": "Inner Ring Road, Opp. Maruthi Infotech Koramangala, 100 Feet Rd, Krishna Reddy Layout, Amarjyoti Layout, Domlur, Bengaluru, Karnataka 560071",
        "lattitude": "12.95234",
        "longitude": "77.63997",
        "id": "8"
    },
    {
        "name": "Prerna Motors, Kudlugate",
        "state": "Karnataka",
        "city": "Bangalore",
        "address": "NO.55, HOSUR MAIN ROAD, KUDLUGATE, HONGASANDRA, NEXT TO OZONE TECH PARK, Kudlu Gate, Garebhavipalya, Garvebhavi Palya, Bengaluru, Karnataka 560068",
        "lattitude": "12.89083",
        "longitude": "77.63821",
        "id": "9"
    },
    {
        "name": "LAKSHMI Motors - Thoraipakkam",
        "state": "Tamil Nadu",
        "city": "Chennai",
        "address": "118, Okkiam, Thoraipakkam, Chennai, Tamil Nadu - 600097",
        "lattitude": "12.92976",
        "longitude": "80.23164",
        "id": "10"
    },
    {
        "name": "Ginger Hotel, Vadapalani",
        "state": "Tamil Nadu",
        "city": "Chennai",
        "address": "61, Inner Ring Rd, Thiru Nagar Colony, NGO Colony, Vadapalani, Chennai, Tamil Nadu 600026",
        "lattitude": "13.05647",
        "longitude": "80.21116",
        "id": "11"
    },
    {
        "name": "Tejaswi Motors - Madhapur",
        "state": "Telangana",
        "city": "Hyderabad",
        "address": "Plot No. 4\/14, Opp. Cyber Towers, KPHB Road, Madhapur, Hyderabad, Telangana - 500081",
        "lattitude": "17.45345",
        "longitude": "78.38334",
        "id": "12"
    },
    {
        "name": "Venkataramana Motors, ECIL",
        "state": "Telangana",
        "city": "Hyderabad",
        "address": "Plot No 11, Victory Plaza, ECIL X Roads, Hyderabad, Telangana - 500062",
        "lattitude": "17.48081",
        "longitude": "78.57715",
        "id": "13"
    },
    {
        "name": "Select Cars, Sanath Nagar",
        "state": "Telangana",
        "city": "Hyderabad",
        "address": "B-51, APIIC Rd, IDA Kukatpally, Sanath Nagar, Hyderabad, Telangana 500018",
        "lattitude": "17.45608",
        "longitude": "78.44656",
        "id": "14"
    },
    {
        "name": "Westside, Somajiguda",
        "state": "Telangana",
        "city": "Hyderabad",
        "address": "PLOT NO.6-3, Kmc Retail Mall, CIRCLE, 1112, near KIRTILAL JEWELLERS, Somajiguda, Hyderabad, Telangana 500082",
        "lattitude": "17.4226",
        "longitude": "78.46136",
        "id": "15"
    },
    {
        "name": "Select Cars, Alkapuri",
        "state": "Telangana",
        "city": "Hyderabad",
        "address": "ALKAPURI X ROADS, Nagole, Hyderabad, Telangana 500068",
        "lattitude": "17.3649",
        "longitude": "78.55747",
        "id": "16"
    },
    {
        "name": "Fortune Cars (S & SC) - Navi Mumbai, Nerul",
        "state": "Maharashtra",
        "city": "Navi Mumbai",
        "address": "Plot No. D-400, TTC Industrial Area, MIDC, Near Uran Phata Signal, Nerul, Navi Mumbai, Maharashtra - 400 706",
        "lattitude": "19.05021",
        "longitude": "73.02105",
        "id": "17"
    },
    {
        "name": "Ginger Mumbai (Andheri East)",
        "state": "Maharashtra",
        "city": "Mumbai",
        "address": "Teli - Gali Road, Andheri (East), Mumbai - 400069",
        "lattitude": "19.11599",
        "longitude": "72.85018",
        "id": "18"
    },
    {
        "name": "Tata Power Versova",
        "state": "Maharashtra",
        "city": "Mumbai",
        "address": "KL Walawalkar Marg, Sahayog Nagar, Bhudargarh Colony, Andheri West, Mumbai, Maharashtra 400102",
        "lattitude": "19.13052",
        "longitude": "72.83056",
        "id": "19"
    },
    {
        "name": "Inderjit Cars - Andheri",
        "state": "Maharashtra",
        "city": "Mumbai",
        "address": "1059\/1060, Adarsh nagar, near infinity mall, Off New Link Road, Andheri West, Mumbai, Maharashtra 400053",
        "lattitude": "19.14207",
        "longitude": "72.83241",
        "id": "20"
    },
    {
        "name": "Heritage Vehicle Pvt. Ltd, Thane",
        "state": "Maharashtra",
        "city": "Thane",
        "address": "3\/4, Meena Apartment, Panchpakhadi, Eastern Exp Highway, Thane West u2013 Pokran Upvan, Thane - 400606",
        "lattitude": "19.1972",
        "longitude": "72.96321",
        "id": "21"
    },
    {
        "name": "Tata Power Vikhroli",
        "state": "Maharashtra",
        "city": "Mumbai",
        "address": "The Tata Power Company Limited, 400 kV Project, Vikhroli Sub Station, Godrej Soap Premises, Vikhroli (East), Mumbai 400079",
        "lattitude": "19.095269",
        "longitude": "72.926195",
        "id": "22"
    },
    {
        "name": "GO AUTO\/ Treo Tata (3S) - Safdargunj",
        "state": "Delhi",
        "city": "Delhi",
        "address": "A-2\/14, Safdarjung Enclave, , Delhi, Delhi - 110029",
        "lattitude": "28.56483",
        "longitude": "77.18891",
        "id": "23"
    },
    {
        "name": "SAB Motors- Patel Nagar",
        "state": "Uttar Pradesh",
        "city": "Ghaziabad",
        "address": "G-94, Patel Nagar - III, Ghaziabad, Uttar Pradesh - 201 001",
        "lattitude": "28.67458",
        "longitude": "77.42895",
        "id": "24"
    },
    {
        "name": "Autovikas - Motinagar",
        "state": "Delhi",
        "city": "Delhi",
        "address": "Block B, No. 57, Rama Rd, Moti Nagar, Block B, Najafgarh Road Industrial Area, New Delhi, Delhi 110015",
        "lattitude": "28.66078",
        "longitude": "77.1536",
        "id": "25"
    },
    {
        "name": "Multitech Motors, Sec 27 Faridabad",
        "state": "Haryana",
        "city": "Faridabad",
        "address": "Sector 19, Faridabad, Haryana 121002",
        "lattitude": "28.41873",
        "longitude": "77.31114",
        "id": "26"
    },
    {
        "name": "Sparsh (3S) - Dwarka, Garg Plaza",
        "state": "Delhi",
        "city": "Delhi",
        "address": "RZ A- 70, Garg Plaza, Dabri - Palam Road, Dwarka, Delhi, Delhi - 110043",
        "lattitude": "28.60585",
        "longitude": "77.08133",
        "id": "27"
    },
    {
        "name": "Westside, Lajpat Nagar",
        "state": "Delhi",
        "city": "Delhi",
        "address": "A-15, Alankar Cinema Building, Feroze Gandhi Marg, Lajpat Nagar III, New Delhi 110024",
        "lattitude": "28.56817",
        "longitude": "77.24112",
        "id": "28"
    },
    {
        "name": "Rudra Motors, Wagholi",
        "state": "Maharashtra",
        "city": "Pune",
        "address": "Gat No.1343\/A, Near Ubale Nagar Bus Stop, Wagholi-412207",
        "lattitude": "18.57391",
        "longitude": "73.9589",
        "id": "29"
    },
    {
        "name": "Bafna-Tathawade (Concorde)",
        "state": "Maharashtra",
        "city": "Pune",
        "address": "Gate No. 129\/2B\/1, Mumbai Bangalore Express Highway,Ashok Nagar, Tathawade, Pune-411033",
        "lattitude": "18.62343",
        "longitude": "73.74568",
        "id": "30"
    },
    {
        "name": "Croma Aundh, Pune",
        "state": "Maharashtra",
        "city": "Pune",
        "address": "Survey No.127\/2B\/1A Nanasaheb Gaikwad Information Technology Park ITI Road, Near, Sarjaa Rd, Aundh, Pune,411007",
        "lattitude": "18.55368",
        "longitude": "73.80696",
        "id": "31"
    },
    {
        "name": "KHT MOTORS - Kundalahalli near Whitefield",
        "state": "Karnataka",
        "city": "Bangalore",
        "address": "No. 736, Vijayalakshmi Square, Kundalahalli Main Road, , Bengaluru, Karnataka - 560 066",
        "lattitude": "12.96684",
        "longitude": "77.71657",
        "id": "32"
    },
    {
        "name": "Inderjit Cars - Mira Road",
        "state": "Maharashtra",
        "city": "Thane",
        "address": "Platinum Building, Ground Floor,Opp. Pleasant Park,Next To Brand Factory Showroom,Mira Road-401 107",
        "lattitude": "19.277922",
        "longitude": "72.880256",
        "id": "33"
    },
    {
        "name": "IOCL - Breach Candy",
        "state": "Maharashtra",
        "city": "Mumbai",
        "address": "Bhulabhai Desai Road, Breach Candy, near Tata Garden, Mumbai, Maharashtra 400026",
        "lattitude": "18.96555",
        "longitude": "72.80346",
        "id": "34"
    },
    {
        "name": "Puneet Prabadevi (Concorde)",
        "state": "Maharashtra",
        "city": "Mumbai",
        "address": "Lloyds Centre Point, Appasaheb Marathe Marg, Dadar West, Prabhadevi, Mumbai, Maharashtra 400025",
        "lattitude": "19.01296",
        "longitude": "72.82652",
        "id": "35"
    },
    {
        "name": "SAB Motors- Industrial Area, Loni Road",
        "state": "Uttar Pradesh",
        "city": "Ghaziabad",
        "address": "CF 1-1\/1 to 1\/5 Harsha Compound, Site II, Loni Road Industrial Area, Mohan Nagar, Ghaziabad, Uttar Pradesh - 201 007",
        "lattitude": "28.683213",
        "longitude": "77.377082",
        "id": "36"
    },
    {
        "name": "Croma Attapur, Hyderabad",
        "state": "Telangana",
        "city": "Hyderabad",
        "address": "Sirimalle Square Plot Nos. 8, 9, 10 Survey No. 523\/B, Pillar No. 160 Attapur, Rajendranagar mandal, Hyderabad, Telangana 500048.",
        "lattitude": "17.359176",
        "longitude": "78.426285",
        "id": "37"
    },
    {
        "name": "Croma Kompally, Hyderabad",
        "state": "Telangana",
        "city": "Hyderabad",
        "address": "Ratna Arcade, Ground Floor Survey No. 128 National Highway 44, Beside, Sree Vensai Towers, Ruby Block, Kompally, Secunderabad, Telangana 500014",
        "lattitude": "17.531882",
        "longitude": "78.485644",
        "id": "38"
    },
    {
        "name": "Croma L.B. Nagar, Hyderabad",
        "state": "Telangana",
        "city": "Hyderabad",
        "address": "CROMA, Ground Floor,D.V.Cascade,Plot 59A,59\/B,59\/C,59\/D In Survey 9\/9,Saroornagar Village,L.B.Nagar - 500074",
        "lattitude": "17.352657",
        "longitude": "78.546636",
        "id": "39"
    },
    {
        "name": "Croma Ramanthapur, Hyderabad",
        "state": "Telangana",
        "city": "Hyderabad",
        "address": "Croma, Unit No. 2 & 3, Ground Floor, Plot Survey No. 46, Pragathi Nagar, Ramanthapur Main Road, Ramanthapur, Telangana, Hyderabad - 500013",
        "lattitude": "17.4003",
        "longitude": "78.54212",
        "id": "40"
    },
    {
        "name": "Gurudev Tata Motors (S & SC), Arumbakkam",
        "state": "Tamil Nadu",
        "city": "Chennai",
        "address": "Old No 90, New Number 1090, E.V.R. Periyar High Road, Arumbakkam, Chennai, Tamil Nadu - 600106",
        "lattitude": "13.07656",
        "longitude": "80.2021",
        "id": "41"
    },
    {
        "name": "Sagar Motors EV (S) - Surajpur",
        "state": "Uttar Pradesh",
        "city": "Noida",
        "address": "E-36, Site-4, UDSIDC, Surajpur Kasna Road, (Near Pari Chowk), Noida, Uttar Pradesh - 201310",
        "lattitude": "28.45782",
        "longitude": "77.52322",
        "id": "42"
    },
    {
        "name": "Society Motors, MACROBERTGANJ",
        "state": "Uttar Pradesh",
        "city": "Kanpur",
        "address": "12\/483, Macrobert Ganj, Kanpur, Uttar Pradesh - 208 001",
        "lattitude": "26.482346",
        "longitude": "80.329394",
        "id": "43"
    },
    {
        "name": "Sai Baba-THEREGAON",
        "state": "Maharashtra",
        "city": "Pune",
        "address": "5\/4, Nakhate Nagar,Kalewadi Main Road,Theregaon,Pune-411033",
        "lattitude": "18.611143",
        "longitude": "73.783103",
        "id": "44"
    },
    {
        "name": "Sridha Motors, Chakan, Pune-Nashik Highway",
        "state": "Maharashtra",
        "city": "Pune",
        "address": "GAT NO. 143\/3, PUNE-NASHIK HIGHWAY WAKI (KH), Maharashtra 410501",
        "lattitude": "18.77893",
        "longitude": "73.87099",
        "id": "45"
    },
    {
        "name": "Riya Autolink - Ambli BRTS Bus Stand",
        "state": "Gujarat",
        "city": "Ahmedabad",
        "address": "Near Devkutir Bunglow, Opp Bopal Ambli BRTS Bus Stand, Iscon-Bopal Road, Ahmedabad, Gujarat - 380058",
        "lattitude": "23.02558",
        "longitude": "72.47991",
        "id": "46"
    },
    {
        "name": "Pramukh Auto - Umiya Nagar, Surat",
        "state": "Gujarat",
        "city": "Surat",
        "address": "Plot No. 409\/27-A, Umiya Nagar Society,Near Chosath Jogni Mata Temple,Udhna Magdalla Road,Surat-394210",
        "lattitude": "21.164948",
        "longitude": "72.835879",
        "id": "47"
    },
    {
        "name": "WELCOME MOTORS",
        "state": "Delhi",
        "city": "Delhi",
        "address": "SAKET DISST. CENTRE SAKET N.DELHI - 110017",
        "lattitude": "28.5279341",
        "longitude": "77.2156347",
        "id": "48"
    },
    {
        "name": "Nangia Cars Pvt Ltd",
        "state": "Maharashtra",
        "city": "Nagpur",
        "address": "33B 1\/4 Hinghna MIDC Opp Nangia Speciality Hospital Nagpur 440028 ",
        "lattitude": "21.13246",
        "longitude": "79.00401",
        "id": "49"
    },
    {
        "name": "CoastLine Garages India Private Limited",
        "state": "Kerala",
        "city": "Kochi",
        "address": "Opposite Metro Pillar no 155 , NH 47, Muttom , Near Aluva , Cochin-683106",
        "lattitude": "10.077281",
        "longitude": "76.337656",
        "id": "50"
    },
    {
        "name": "Beeaar Autowheels India Pvt Ltd",
        "state": "Uttar Pradesh",
        "city": "Lucknow",
        "address": "Milestone No.u00a0111, Faizabad Road, Chinhat, Lucknow (UP) 227105",
        "lattitude": "26.872061",
        "longitude": "81.036465",
        "id": "51"
    },
    {
        "name": "NRL Cars Pvt Ltd",
        "state": "Uttar Pradesh",
        "city": "Agra",
        "address": "404, Nagla Padi, Near Arvind Hyundai 282005",
        "lattitude": "27.21132",
        "longitude": "77.99742",
        "id": "52"
    },
    {
        "name": "Tata Power, Dharavi Colony",
        "state": "Maharashtra",
        "city": "Mumbai",
        "address": "Tata Power Dharavi Colony labour camp dharavi ,Matunga ,Mumbai 400019",
        "lattitude": "19.03571",
        "longitude": "72.8499296",
        "id": "53"
    },
    {
        "name": "SABARWAL SERVICE STATION",
        "state": "Delhi",
        "city": "Delhi",
        "address": "Tamil Sangam Marg, Sector 5, Rama Krishna Puram, New Delhi-110022",
        "lattitude": "28.564625",
        "longitude": "77.177461",
        "id": "54"
    },
    {
        "name": "RSA Motors",
        "state": "Chandigarh",
        "city": "Chandigarh",
        "address": "Plot No.40, Industrial Area, Phase II, chandigarh - 160002",
        "lattitude": "30.6990516",
        "longitude": "76.7855313",
        "id": "55"
    },
    {
        "name": "Shree Shyam Motors",
        "state": "Rajasthan",
        "city": "Jaipur",
        "address": "E(5) B, Road no 1C, VKI area, Jaipur - 302013",
        "lattitude": "26.972289",
        "longitude": "75.777332",
        "id": "56"
    },
    {
        "name": "First Mobital",
        "state": "Rajasthan",
        "city": "Jaipur",
        "address": "G1-211, Sitapura Industrial Area, behind genpect Tonk Road, Jaipur - 302022",
        "lattitude": "26.7775967",
        "longitude": "75.8392813",
        "id": "57"
    },
    {
        "name": "Roshan Motors",
        "state": "Rajasthan",
        "city": "Jaipur",
        "address": "B-7,Goving marg, raja park, near Pink Square mall.",
        "lattitude": "26.90155",
        "longitude": "75.83532",
        "id": "58"
    },
    {
        "name": "Amanora Park Town",
        "state": "Maharashtra",
        "city": "Pune",
        "address": "Crescent Rd, Amanora Park Town, Hadapsar, Pune, Maharashtra 411028",
        "lattitude": "18.5152785",
        "longitude": "73.9458522",
        "id": "59"
    },
    {
        "name": "Amanora Township",
        "state": "Maharashtra",
        "city": "Pune",
        "address": "Amanora Township , Hadpasar , Pune 411028",
        "lattitude": "18.518614",
        "longitude": "73.936079",
        "id": "60"
    },
    {
        "name": "Sree Gokulam Motors",
        "state": "Tamil Nadu",
        "city": "Chennai",
        "address": "Sree Gokulam Motors, No 93, 3C, 200 Feet Radial road, Zamin Pallavaram, Chennai - 600117",
        "lattitude": "12.950258",
        "longitude": "80.176003",
        "id": "61"
    },
    {
        "name": "Shreeji Automart-PIPLOD",
        "state": "Gujarat",
        "city": "Surat",
        "address": "04 A\/B, Shreeji House,Opp. Big Bazar,Dumas Road, Piplod,Surat-395 002",
        "lattitude": "21.159829",
        "longitude": "72.770603",
        "id": "62"
    },
    {
        "name": "URS KAR motors",
        "state": "Karnataka",
        "city": "Mysuru",
        "address": "Urs Kar, CH 11, New Kantharaj Urs Rd, Mysuru, Karnataka 570004",
        "lattitude": "12.2951473",
        "longitude": "76.6415085",
        "id": "63"
    },
    {
        "name": "SHIV HARI & SONS FILLING CENTER",
        "state": "Madhya Pradesh",
        "city": "Rajgad-Bhopal",
        "address": "NH 52, Chainage  454 RHS, Vill- Pipalbey Purohit, Dist- Rajgad-465661",
        "lattitude": "23.997025",
        "longitude": "76.786928",
        "id": "64"
    },
    {
        "name": "IOCL Kini Causway",
        "state": "Maharashtra",
        "city": "Mumbai",
        "address": "36, SV Rd, Santosh Nagar, Bandra West, Mumbai, Maharashtra 400050",
        "lattitude": "19.051601",
        "longitude": "72.838011",
        "id": "65"
    },
    {
        "name": "Lexus Motors",
        "state": "West Bengal",
        "city": "Kolkata",
        "address": "Budge Budge Trunk Road, Rampur, Kolkata, West Bengal - 700141",
        "lattitude": "22.515051",
        "longitude": "88.278113",
        "id": "66"
    },
    {
        "name": "Ananya Auto Agency",
        "state": "Bihar",
        "city": "Patna",
        "address": "Danapur Khagual Road, Near Gayatri Hospital and SSB Camp, Patna, Bihar - 801503",
        "lattitude": "25.61264",
        "longitude": "85.046591",
        "id": "67"
    },
    {
        "name": "Arya Motors",
        "state": "Haryana",
        "city": "Gurgaon",
        "address": "Khasra No 1598, Opp Tau Devi Bio Diversity Park, Adjoining Green Home Society, Sector 52, Gurgaon, Haryana - 122 003",
        "lattitude": "28.432922",
        "longitude": "77.089391",
        "id": "68"
    },
    {
        "name": "Dada Motors",
        "state": "Punjab",
        "city": "LUDHIANA",
        "address": "Savitri 1, G.T. Road, Dholewal chowk, LUDHIANA, Punjab - 141 003",
        "lattitude": "30.889706",
        "longitude": "75.875999",
        "id": "69"
    },
    {
        "name": "Society Motors",
        "state": "Uttar Pradesh",
        "city": "Kanpur",
        "address": "87\/8, G.T. Road, Gunjan Cinema Complex, Kanpur, Uttar Pradesh - 208 003",
        "lattitude": "26.46047",
        "longitude": "80.32731",
        "id": "70"
    },
    {
        "name": "Puneet Automobiles",
        "state": "Uttar Pradesh",
        "city": "Lucknow",
        "address": "403-407, Tiwariganj, Uttardhauna, Near BBD University, Faizabad Road, Lucknow, Uttar Pradesh - 226 028",
        "lattitude": "26.892284",
        "longitude": "81.072342",
        "id": "71"
    },
    {
        "name": "SRM Motors",
        "state": "Uttar Pradesh",
        "city": "Lucknow",
        "address": "11-CP\/2, Vikas Nagar Extension, Ring Road, Lucknow, Uttar Pradesh - 226 022",
        "lattitude": "26.90094",
        "longitude": "80.96426",
        "id": "72"
    },
    {
        "name": "KHT Motors",
        "state": "Karnataka",
        "city": "Bengaluru",
        "address": "Plot No.7A, Survey No.35, Devasandra Village, Devasandra Industrial Area, K.R. Puram Hobli, Bengaluru, Karnataka - 560 036",
        "lattitude": "12.99824",
        "longitude": "77.69973",
        "id": "73"
    },
    {
        "name": "Prerana Motors",
        "state": "Karnataka",
        "city": "Bengaluru",
        "address": "Near NTTF, Peenya Industrial Area, 2nd Stage, Bengaluru, Karnataka - 560 058",
        "lattitude": "13.02944",
        "longitude": "77.51056",
        "id": "74"
    },
    {
        "name": "MK Motors",
        "state": "Kerala",
        "city": "Kottayam",
        "address": "A Division of Malankara Plantations Ltd., Channanikadu, Near SN College, Kottayam, Kerala - 686 533",
        "lattitude": "9.542072",
        "longitude": "76.54164",
        "id": "75"
    },
    {
        "name": "Suryoday Auto",
        "state": "Maharashtra",
        "city": "Vasai",
        "address": "Nicholas Compound, Sativali Road, Vasai, Maharashtra - 401208",
        "lattitude": "19.406502",
        "longitude": "72.861003",
        "id": "76"
    },
    {
        "name": "Metro Motors",
        "state": "Haryana",
        "city": "KARNAL",
        "address": "112\/60 Milestone, Near Arpana Hospital, G. T Road, Village Kutail, KARNAL, Haryana - 132037",
        "lattitude": "29.592789",
        "longitude": "76.980713",
        "id": "77"
    },
    {
        "name": "Satish Motors",
        "state": "Maharashtra",
        "city": "Aurangabad",
        "address": "Show-Room No. 1 & 2, SMS Arcade, Seven Hills, Gajanan Maharaj Mandir Road, AURANGABAD, Maharashtra - 431005",
        "lattitude": "19.874565",
        "longitude": "75.352083",
        "id": "78"
    },
    {
        "name": "Malwa Automobiles",
        "state": "Delhi",
        "city": "Delhi",
        "address": "A-1\/16, Prashant Vihar, Delhi, Delhi - 110 085",
        "lattitude": "28.72703",
        "longitude": "77.157234",
        "id": "79"
    },
    {
        "name": "Tata Power Vikhroli(Tata Power slow chargers)",
        "state": "Maharashtra",
        "city": "Mumbai",
        "address": "The Tata Power Company Limited, 400 kV Project, Vikhroli Sub Station, Godrej Soap Premises, Vikhroli (East), Mumbai 400079",
        "lattitude": "19.095269",
        "longitude": "72.926195",
        "id": "80"
    },
    {
        "name": "Tata Power, Dharavi Receiving Station(Tata Power slow chargers)",
        "state": "Maharashtra",
        "city": "Mumbai",
        "address": "Dharavi Receiving Station, Near Shalimar Industrial Estate, Matunga, Mumbai 400 019",
        "lattitude": "19.0356536",
        "longitude": "72.8540428",
        "id": "81"
    },
    {
        "name": "Raheja, Saat Raasta(Tata Power slow chargers)",
        "state": "Maharashtra",
        "city": "Mumbai",
        "address": "25A, Sane Guruji Marg, RTO Colony, Mumbai Central, Mumbai, Maharashtra 400011",
        "lattitude": "18.9797319",
        "longitude": "72.8255146",
        "id": "82"
    },
    {
        "name": "Raheja, Saat Raasta(Tata Power slow chargers)",
        "state": "Maharashtra",
        "city": "Mumbai",
        "address": "25A, Sane Guruji Marg, RTO Colony, Mumbai Central, Mumbai, Maharashtra 400011",
        "lattitude": "18.9797319",
        "longitude": "72.8255146",
        "id": "83"
    },
    {
        "name": "Plug N Go Patparganj",
        "state": "Delhi NCR",
        "city": "Delhi",
        "address": "Near Swati Apartments",
        "lattitude": "28.621450",
        "longitude": "77.293556",
        "id": "84"
    },
    {
        "name": "Plug N Go DLF Gateway Tower",
        "state": "Delhi",
        "city": "Gurugram",
        "address": "DLF Gateway Tower",
        "lattitude": "28.497863",
        "longitude": "77.091413",
        "id": "85"
    },
    {
        "name": "MG Jayalakshmi Auto Enterprises Gudavalli Charging Station",
        "state": "Andhra Pradesh",
        "city": "Gudavalli",
        "address": "No 3\/142 NH16, Krishna, Gudavalli Junction, Gudavalli, Andhra Pradesh",
        "lattitude": "16.5125845",
        "longitude": "80.7497156",
        "id": "86"
    },
    {
        "name": "Habitat Food Court and Restaurant",
        "state": "Andhra Pradesh",
        "city": "Jagannadhapuram",
        "address": "AH45, Jagannadhapuram Agraharam, Andhra Pradesh",
        "lattitude": "17.0689094",
        "longitude": "81.8854474",
        "id": "87"
    },
    {
        "name": "Garuda Food Court Gundugolanu Charging station",
        "state": "Andhra Pradesh",
        "city": "Komirepalle",
        "address": "AH45, Komirepalle, Andhra Pradesh",
        "lattitude": "16.7785676",
        "longitude": "81.2210551",
        "id": "88"
    },
    {
        "name": "TML Siva Sankar Motors Gajuwaka Charging Station",
        "state": "Andhra Pradesh",
        "city": "Visakhapatnam",
        "address": "Survey No 91\/15 & 91\/17A Vishweshwaraya Nagar Road Opposite Gayatri Petrol Bunk, Gajuwaka, Visakhapatnam, Andhra Pradesh",
        "lattitude": "17.684452",
        "longitude": "83.185687",
        "id": "89"
    },
    {
        "name": "TMl Siva Sankar Motors,Kancharpalem Charging Stationu00a0",
        "state": "Andhra Pradesh",
        "city": "Visakhapatnam",
        "address": "Plot No C24 Industrial ESTE, 104 area, opposite Weighbridge, Industrial Estate, Gavara Kanchara Palem, Industrial Area, Visakhapatnam, Andhra Pradesh",
        "lattitude": "17.7388705",
        "longitude": "83.2622065",
        "id": "90"
    },
    {
        "name": "IOCL Irwin Road Connaught Place",
        "state": "Delhi",
        "city": "Connaught Place",
        "address": "Ground Floor, Baba Kharak Singh Rd, DIZ Staff Quarters, Connaught Place, New Delhi, Delhi",
        "lattitude": "28.6283593",
        "longitude": "77.2088946",
        "id": "91"
    },
    {
        "name": "19th Hole Charging Station",
        "state": "Delhi",
        "city": "Delhi",
        "address": "Delhi Golf Club, Golf Links, New Delhi, Delhi",
        "lattitude": "28.6019255",
        "longitude": "77.2371892",
        "id": "92"
    },
    {
        "name": "TML Truenorth Automobiles, Mayapuri Charging Station",
        "state": "Delhi",
        "city": "Mayapuri",
        "address": "A1\/1, Phase 1, Mayapuri Industrial Area Phase I, Mayapuri, New Delhi, Delhi",
        "lattitude": "28.6333639",
        "longitude": "77.127003",
        "id": "93"
    },
    {
        "name": "IOCL Intimate FIlling Soami Nagar Charging Station",
        "state": "Delhi",
        "city": "New Delhi",
        "address": "Outer Ring Rd, Block B, Soami Nagar North, Soami Nagar, New Delhi, Delhi",
        "lattitude": "28.5427134",
        "longitude": "77.2252974",
        "id": "94"
    },
    {
        "name": "Hundred Percent Filling & Service Station",
        "state": "Delhi",
        "city": "New Delhi",
        "address": "Dabri - Gurgaon Rd, Dwarka Sector 9, Dwarka, New Delhi, Delhi ",
        "lattitude": "28.5786483",
        "longitude": "77.0595137",
        "id": "95"
    },
    {
        "name": "MG Priority Auto lincs Taleigao",
        "state": "Goa",
        "city": "Taleigao",
        "address": "Survey No 166\/1 New Taleigao Bypass Road, Community Centre, Taleigao Jct, opp. Taleigao, Taleigao, Goa",
        "lattitude": "15.4693627",
        "longitude": "73.8202106",
        "id": "96"
    },
    {
        "name": "MG JAi Ganesh Autocars Charging Station",
        "state": "Gujarat",
        "city": "Rajkot",
        "address": "Survey No 215, Shri Balvi House Revenue Kothariya, opposite Krishna Park, Amrut Udhyog Nagar, Rajkot, Gujarat ",
        "lattitude": "22.234444",
        "longitude": "70.801194",
        "id": "97"
    },
    {
        "name": "IOCL COCO IT Park Bhagwanpura Chandigarh Charging Station",
        "state": "Haryanau00a0",
        "city": "Chandigarh",
        "address": "Opposite of Tech Mahindra,Rajiv Gandhi Chandigarh Technology Park, Plot No.23, Phase - II, Kishangarh, Chandigarh, Haryana",
        "lattitude": "30.730918",
        "longitude": "76.8364222",
        "id": "98"
    },
    {
        "name": "Sneh Dhaba Ganaur HIghwayu00a0 charging station",
        "state": "Haryanau00a0",
        "city": "Ganaur",
        "address": "64 mile stone, Ganaur, Haryana",
        "lattitude": "29.157333",
        "longitude": "77.0358979",
        "id": "99"
    },
    {
        "name": "Bikanervala Kukrolau00a0 Panchgaon, Gurugram Charging Station",
        "state": "Haryanau00a0",
        "city": "Gurugram",
        "address": "55th Mile Stone, NH 48, Kukrola, Panchgaon, Gurugram, Haryana",
        "lattitude": "28.3358443",
        "longitude": "76.8989175",
        "id": "100"
    },
    {
        "name": "ASL Motors Industrial Area Adityapur Charging Station",
        "state": "Jharkhand",
        "city": "Jamshedpur",
        "address": "A-7, IInd Phase, Adityapur Industrial Area, Adityapur, Jamshedpur, Jharkhand",
        "lattitude": "22.7907039",
        "longitude": "86.1471629",
        "id": "101"
    },
    {
        "name": "TML Kropex Singasandra Charging Station",
        "state": "Karnataka",
        "city": "Bengaluru",
        "address": "No 49, 1, Hosur Rd, Aishwarya Crystal Layout, Singasandra, Bengaluru, Karnataka ",
        "lattitude": "12.871773",
        "longitude": "77.651106",
        "id": "102"
    },
    {
        "name": "Capital O 72701 Kalinga Tavern Residency",
        "state": "Karnataka",
        "city": "Bengaluru",
        "address": "Bandadka - Bengaluru Rd, Hatna, Karnataka ",
        "lattitude": "12.9748553",
        "longitude": "76.8258338",
        "id": "103"
    },
    {
        "name": "TML Adisakti Motors Devanagere Charging Station",
        "state": "Karnataka",
        "city": "Davanagree",
        "address": "No 628\/K24, Shramajeevi Building PB Road, Avaragere, beside Aradhya Steel Wire Ropes, Davanagere, Karnataka",
        "lattitude": "14.3451022",
        "longitude": "75.9072234",
        "id": "104"
    },
    {
        "name": "Kalinga Tavern Residency Hatna Charging Station",
        "state": "Karnataka",
        "city": "Hatna",
        "address": "Bandadka - Bengaluru Rd, Hatna, Karnataka",
        "lattitude": "12.9748553",
        "longitude": "76.8258338",
        "id": "105"
    },
    {
        "name": "MG Jubilant Autoworks Kuloor Padukodi Charging Station",
        "state": "Karnataka",
        "city": "Mangalore",
        "address": "Survey No 38, 2, Kuloor - Kavoor Rd, Kuloor, Padukodi, Mangalore, Karnataka ",
        "lattitude": "12.9236718",
        "longitude": "74.8312107",
        "id": "106"
    },
    {
        "name": "TML Auto Matrix Bejai Charging Station",
        "state": "Karnataka",
        "city": "Mangalore",
        "address": "Manjusha Building, Bejai, Mangalore, Karnataka",
        "lattitude": "12.8856418",
        "longitude": "74.8435235",
        "id": "107"
    },
    {
        "name": "MG Dyuthi Automobiles Hunsur Road Charging Station",
        "state": "Karnataka",
        "city": "Mysuru",
        "address": "Plot No 201, 1 & 2, Hunsur Rd, Vijayanagar 4th Stage, Hinkal, Mysuru, Karnataka",
        "lattitude": "12.3254509",
        "longitude": "76.6102612",
        "id": "108"
    },
    {
        "name": "TML Sree Gokulam Motors And Services Nettoor Charging Station",
        "state": "Kerala",
        "city": "Ernakulam",
        "address": "Building No 10 and 256\/C Sy No 1562\/1, NH 47, Bypass Road, Nettoor, Maradu, Ernakulam, Kerala",
        "lattitude": "9.9237074",
        "longitude": "76.3179222",
        "id": "109"
    },
    {
        "name": "IOCL JRO Pongam Cochin DO Thrissur Charging Stationu00a0",
        "state": "Kerala",
        "city": "Kizhakkummuri",
        "address": "Service Rd, Kizhakkummuri, Kerala",
        "lattitude": "10.2456",
        "longitude": "76.370201",
        "id": "110"
    },
    {
        "name": "CoastLine Garages India Private Limited MG",
        "state": "Kerala",
        "city": "Kozhikode",
        "address": "Ground Floor, Kannur Rd, opposite Westhill Post Office, West Hill, Kozhikode, Kerala",
        "lattitude": "11.2823156",
        "longitude": "75.7699409",
        "id": "111"
    },
    {
        "name": "TML Marina Motors Pantheerankavu Charging Stationu00a0",
        "state": "Kerala",
        "city": "Kozhikode",
        "address": "NH 66, Bypass Road, Pantheeramkavu, Kerala",
        "lattitude": "11.2171461",
        "longitude": "75.8582801",
        "id": "112"
    },
    {
        "name": "TML KVR Dream vehicles Chirakku Thazhe Charging Station",
        "state": "Kerala",
        "city": "Nadal",
        "address": "Ground Floor, Kizhunna - Kadappuram Rd, Chirakku Thazhe, Nadal, Kerala",
        "lattitude": "11.8330285",
        "longitude": "75.4263667",
        "id": "113"
    },
    {
        "name": "TML Trivandrum Motors Pvt Ltd Poonthura Charging Station",
        "state": "Kerala",
        "city": "Thiruvananthapuram",
        "address": "Behind Milma Diary, Eanchakkal Kovalam Bypass Road, Ambalathara, Thiruvallam, Puthanpally, Poonthura, Thiruvananthapuram, Kerala",
        "lattitude": "8.4471351",
        "longitude": "76.9492799",
        "id": "114"
    },
    {
        "name": "TML Hyson Motors Puzhakkal Charging Stationu00a0",
        "state": "Kerala",
        "city": "Thrissur",
        "address": "Guruvayur Rd, Puzhakkal, Punkunnam, Thrissur, Kerala",
        "lattitude": "10.5405917",
        "longitude": "76.1895738",
        "id": "115"
    },
    {
        "name": "Hriday Cars Anoop Nagar Ab Road Charging Station",
        "state": "MadhyaPradesh",
        "city": "Indore",
        "address": "1, AB Rd, New Palasia, Indore, Madhya Pradesh",
        "lattitude": "22.7299599",
        "longitude": "75.888605",
        "id": "116"
    },
    {
        "name": "Lilium Park Ahmednagar Charging station",
        "state": "Maharashtra",
        "city": "Ahmednagar",
        "address": "State Highway 44, Opp. Lemon Tree Hotel, Ahmednagar, Maharashtra",
        "lattitude": "19.2644019",
        "longitude": "74.8279426",
        "id": "117"
    },
    {
        "name": "TML Max Motors Ahmednagar Charging station",
        "state": "Maharashtra",
        "city": "Ahmednagar",
        "address": "No E2\/2 Nagar, Manmad Rd, Gajanan Colony, MIDC, Ahmednagar, Maharashtra",
        "lattitude": "19.157288",
        "longitude": "74.7037569",
        "id": "118"
    },
    {
        "name": "Hotel Sangam Karad Charging Point",
        "state": "Maharashtra",
        "city": "Karad",
        "address": "NH 4, Pune-Bangalore Road, Near Kolhapur Naka, Shaniwar Peth, Karad, Maharashtra",
        "lattitude": "17.2737005",
        "longitude": "74.1804228",
        "id": "119"
    },
    {
        "name": "Hotel Shivaray shivpur Baug shri Ramnagar Charging Station",
        "state": "Maharashtra",
        "city": "Khed",
        "address": "Pune - Satara Rd, Highway, Pune, Maharashtra",
        "lattitude": "18.3557229",
        "longitude": "73.8525776",
        "id": "120"
    },
    {
        "name": "Nathani Heights Charging Station",
        "state": "Maharashtra",
        "city": "Mumbai",
        "address": "Lamington Rd, Marzban Parsi Colony, Opp, Mumbai Central, Mumbai, Maharashtra ",
        "lattitude": "18.9688922",
        "longitude": "72.8206715",
        "id": "121"
    },
    {
        "name": "Zenith Chemical MIDC Marol",
        "state": "Maharashtra",
        "city": "Mumbai",
        "address": "B-6, Cross Road B J B Nagar, Bhim Nagar, Andheri East, Mumbai, Maharashtra",
        "lattitude": "19.1156993",
        "longitude": "72.8682757",
        "id": "122"
    },
    {
        "name": "IOCL COCO BKC Charging station",
        "state": "Maharashtra",
        "city": "Mumbai",
        "address": "New Coco At, Bandra Kurla Complex, C-67, Bharat Nagar Rd, G Block BKC, Bandra Kurla Complex, Bandra East, Mumbai, Maharashtra ",
        "lattitude": "19.0601877",
        "longitude": "72.864638",
        "id": "123"
    },
    {
        "name": "CSMT EV Charging Station",
        "state": "Maharashtra",
        "city": "Mumbai",
        "address": "P D'Mello Rd, Chhatrapati Shivaji Terminus Area, Fort, Mumbai, Maharashtra ",
        "lattitude": "18.9457819",
        "longitude": "72.8383785",
        "id": "124"
    },
    {
        "name": "TML Inderjit Mira Rd",
        "state": "Maharashtra",
        "city": "Mumbai",
        "address": "Ground Floor, Platinum Building, next to Brand Factory Showroom, Hatkesh Udhog Nagar, Mira Road, Thane, Maharashtra ",
        "lattitude": "19.2778607",
        "longitude": "72.8803075",
        "id": "125"
    },
    {
        "name": "TML Jaika Motors Civil Lines Charging Station",
        "state": "Maharashtra",
        "city": "Nagpur",
        "address": "Jaika Building, 1, Commercial Rd, Collectors Colony, Civil Lines, Nagpur, Maharashtra",
        "lattitude": "21.1557875",
        "longitude": "79.0788136",
        "id": "126"
    },
    {
        "name": "Rawmatt Ind Pvt Ltd Wadiu00a0 Charging Stationu00a0",
        "state": "Maharashtra",
        "city": "Nagpur",
        "address": "Old Wadi Naka, No. 10, Amravati Rd, Wadi, Nagpur, Maharashtra",
        "lattitude": "21.1539066",
        "longitude": "79.0132024",
        "id": "127"
    },
    {
        "name": "MG Nagpur",
        "state": "Maharashtra",
        "city": "Nagpur",
        "address": "Plot No. 33B, Midc, Hingna, Nagpur, Maharashtra ",
        "lattitude": "21.1324669",
        "longitude": "79.0040149",
        "id": "128"
    },
    {
        "name": "Tata Motors rudra motors Viman Nagar Charging Station",
        "state": "Maharashtra",
        "city": "Pune",
        "address": "Sakore Nagar, Viman Nagar, Pune, Maharashtra ",
        "lattitude": "18.5571946",
        "longitude": "73.9079828",
        "id": "129"
    },
    {
        "name": "TML Panchjanya Automobiles, Chinchwad Ram Nagar Charging Station",
        "state": "Maharashtra",
        "city": "Pune",
        "address": "No 49, Ador Power Station, D-II Block, Kalbhor Nagar, MIDC, Chinchwad, Pimpri-Chinchwad, Maharashtra",
        "lattitude": "18.648574",
        "longitude": "73.7987208",
        "id": "130"
    },
    {
        "name": "Hotel Sai International Sangali charging station",
        "state": "Maharashtra",
        "city": "Sangli",
        "address": "Pune Bangalore Highway (NH-4, Vasant Park Chougle Plot, Yelur, Maharashtra",
        "lattitude": "16.9535972",
        "longitude": "74.2755326",
        "id": "131"
    },
    {
        "name": "MG Unique automobiles Maharashtra Shiroli Charging Station",
        "state": "Maharashtra",
        "city": "Shiroli",
        "address": "S No 592, H No 4481 Pune Banglore Highway, MIDC, Shiroli, Maharashtra ",
        "lattitude": "16.7527531",
        "longitude": "74.278712",
        "id": "132"
    },
    {
        "name": "TML Dion Automotives, Samantarapur",
        "state": "Odisha",
        "city": "Bhubaneshwar",
        "address": "Plot No 2175, 3766, Samantarapur, Old Town, Bhubaneswar, Odisha",
        "lattitude": "20.2270081",
        "longitude": "85.841079",
        "id": "133"
    },
    {
        "name": "TML Gugnani Autocars, Pratap Nagari",
        "state": "Odisha",
        "city": "Urali",
        "address": "Plot No 785, NH16, Pratap Nagari, Urali, Odisha",
        "lattitude": "20.405221",
        "longitude": "85.87967",
        "id": "134"
    },
    {
        "name": "MG Motor India",
        "state": "Pondicherry",
        "city": "Pondicherry",
        "address": "No 1, Cuddalore Pondicherry, SH 49, Ariyankuppam, Puducherry ",
        "lattitude": "11.8946021",
        "longitude": "79.8024716",
        "id": "135"
    },
    {
        "name": "TML Dada Motors Heera singh Charging Station",
        "state": "Punjab",
        "city": "Ludhiana",
        "address": "Chowk, Jalandhar Bypass, near Kabaari Market,Samrala, Moti Nagar, Ludhiana, Punjab",
        "lattitude": "30.895735",
        "longitude": "75.884115",
        "id": "136"
    },
    {
        "name": "IOCL COCO 65 Mohali Shaibzada Charging Station",
        "state": "Punjab",
        "city": "Punjab",
        "address": "631a, 631A, Phase 11, Sector 65, Sahibzada Ajit Singh Nagar, Punjab",
        "lattitude": "30.6797129",
        "longitude": "76.746311",
        "id": "137"
    },
    {
        "name": "Tata Akar Fourwheel",
        "state": "Rajasthan",
        "city": "Jaipur",
        "address": "PLOT NO 309, 310, Queens Rd, Nemi Sagar Colony, D - Block, Vaishali Nagar, Jaipur, Rajasthan ",
        "lattitude": "26.9149585",
        "longitude": "75.7529051",
        "id": "138"
    },
    {
        "name": "MG Chambal Motors MAdri Industrial Area",
        "state": "Rajasthan",
        "city": "Udaipur",
        "address": "CP- 6&7, Madri Industrial Area, Transport Nagar, Udaipur, Rajasthan ",
        "lattitude": "24.5747664",
        "longitude": "73.7465355",
        "id": "139"
    },
    {
        "name": "Mg FPL Vehicles Annasali Nandnam Charging Station",
        "state": "TamilNadu",
        "city": "Chennai",
        "address": "No. 824, 2, Anna Salai, Sadras, Nandanam, Chennai, Tamil Nadu",
        "lattitude": "13.0481744",
        "longitude": "80.2496475",
        "id": "140"
    },
    {
        "name": "MG PPS Motors Chinniyampalayam Charging Station",
        "state": "TamilNadu",
        "city": "Coimbatore",
        "address": "PPS Motors Pvt. Ltd, 138, Avinashi Rd, Chinniyampalayam, Coimbatore, Tamil Nadu",
        "lattitude": "11.0501583",
        "longitude": "77.0577882",
        "id": "141"
    },
    {
        "name": "TML True Sai Motors Krishnagiri",
        "state": "TamilNadu",
        "city": "Krishnagiri",
        "address": "No 417A\/1A Krishnagiri Chennai Highway, Pethanapalli, opposite to Hotel, Krishnagiri, Tamil Nadu ",
        "lattitude": "12.5307134",
        "longitude": "78.2378533",
        "id": "142"
    },
    {
        "name": "TML True Sai Motors Salem Charging Station",
        "state": "TamilNadu",
        "city": "Salem",
        "address": "No 73 Salem, Omalur Highway, next to Hotel Grand Estancia, Narasothipatti, Salem, Tamil Nadu",
        "lattitude": "11.6831188",
        "longitude": "78.1259762",
        "id": "143"
    },
    {
        "name": "Vivera Hotels and Resorts Bhuvanagri Charging Station",
        "state": "Telangana",
        "city": "Bhongir",
        "address": "NH 163, Ragari, near IT College, Bhongir, Telangana",
        "lattitude": "17.5227299",
        "longitude": "78.9246504",
        "id": "144"
    },
    {
        "name": "Vivera Hotels And Resorts Loc 1 Narketpally Charging Station",
        "state": "Telangana",
        "city": "Narketpally",
        "address": "NH65, Telangana",
        "lattitude": "17.212877",
        "longitude": "79.1667472",
        "id": "145"
    },
    {
        "name": "HIghway Hospitality Rajugari Thota Rayangudem Charging Stationu00a0",
        "state": "Telangana",
        "city": "Suryapet",
        "address": "NH 65, Rayangudem Village,Suryapet,Telangana",
        "lattitude": "17.1526245",
        "longitude": "79.5699144",
        "id": "146"
    },
    {
        "name": "7 Food Court Suryapet charging station",
        "state": "Telangana",
        "city": "Suryapet",
        "address": "NH - 65, Rayangudem Village Suryapet Mandal, Suryapet, Telangana",
        "lattitude": "17.1506494",
        "longitude": "79.5769862",
        "id": "147"
    },
    {
        "name": "TML Select Motors, SVP Road charging Station",
        "state": "Telangana",
        "city": "Warangal",
        "address": "No 15\/1\/422\/A and B SVP Road, beside Industrial Estate, Vidya Nagar, Warangal, Telangana",
        "lattitude": "17.9992079",
        "longitude": "79.5856293",
        "id": "148"
    },
    {
        "name": "MG Grand Vehicles Mahobelwala Chowk Chargingu00a0 Station",
        "state": "Uttarakhand",
        "city": "Dehradun",
        "address": "Chowk, Saharanpur Rd, Mohabbewala, Dehradun, Uttarakhand",
        "lattitude": "30.268267",
        "longitude": "77.9850961",
        "id": "149"
    },
    {
        "name": "TML Oberai Motors ISBT Rd Majrau00a0",
        "state": "Uttrakhand",
        "city": "Dehradun",
        "address": "SBT Chowk, Near, Shimla Bypass Rd, Majra, Dehradun, Uttarakhand",
        "lattitude": "30.2886629",
        "longitude": "77.9967839",
        "id": "150"
    },
    {
        "name": "TML Banerjee Automobiles Charging Station",
        "state": "WestBengal",
        "city": "Bardhaman",
        "address": "Ferighat Parking Purba Burdwan, NH 2, Fagupur, Chandul PO Fagupur, Purba, Khosbagan, Bardhaman, West Bengal",
        "lattitude": "23.2408471",
        "longitude": "87.8512589",
        "id": "151"
    },
    {
        "name": "24 SEVEN FILLING STATION",
        "state": "Harayana",
        "city": "Gurugram",
        "address": "Golf Course Ext Rd & Southern Peripheral Rd, Badshahpur, Sector 66, Gurugram, Haryana",
        "lattitude": "28.4012813",
        "longitude": "77.0451066",
        "id": "152"
    },
    {
        "name": "64th Milestone Delhi Chandigarh Highway",
        "state": "Chandigarh",
        "city": "Chandigarh",
        "address": "64th Milestone Delhi Chandigarh Highway",
        "lattitude": "29.27169018",
        "longitude": "77.05727364",
        "id": "153"
    },
    {
        "name": "AIRIA MALL",
        "state": "Haryana",
        "city": "Gurugram",
        "address": "Sohna Rd, Sector 68, Gurugram, Haryana",
        "lattitude": "28.3865666",
        "longitude": "77.0519037",
        "id": "154"
    },
    {
        "name": "Amrai Hotel & Resort , Shendre Satara",
        "state": "Maharashtra",
        "city": "Satara",
        "address": "KG.NO 207\/B, Plot No-1&2, Near National Highway No-4, Shendre, Satara, Maharashtra",
        "lattitude": "17.6379827",
        "longitude": "74.0121132",
        "id": "155"
    },
    {
        "name": "Bhasin Service Station",
        "state": "Delhi",
        "city": "NewDelhi",
        "address": "Dr KS Krishnan Marg, Pusa, New Delhi, Delhi",
        "lattitude": "28.6372583",
        "longitude": "77.1735256",
        "id": "156"
    },
    {
        "name": "Croma Habsiguda",
        "state": "Hyderabadu00a0",
        "city": "hyderabad",
        "address": "nit - 2 & 3,Ground floor, Plot survey No.46, opposite Megha Women's Degree and PG College, Pragathi Nagar, Habsiguda, Hyderabad, Telangana",
        "lattitude": "17.4003087",
        "longitude": "78.5421211",
        "id": "157"
    },
    {
        "name": "Gitansh Motors GT Road",
        "state": "Punjab",
        "city": "Ludhiana",
        "address": "Silver Arc Mall, Gurdev Nagar, Ludhiana, Punjab",
        "lattitude": "30.9005314",
        "longitude": "75.8290442",
        "id": "158"
    },
    {
        "name": "Hundred Percent Filling & Service Station",
        "state": "Delhi",
        "city": "NewDelhi",
        "address": "Dabri - Gurgaon Rd, Dwarka Sector 9, Dwarka, New Delhi, Delhi 110075",
        "lattitude": "28.5786483",
        "longitude": "77.0595137",
        "id": "159"
    },
    {
        "name": "IOCL Jai Sai Motors",
        "state": "Delhi",
        "city": "NewDelhi",
        "address": "Okhla Phase I, Okhla Industrial Area, New Delhi, Delhi",
        "lattitude": "28.5223359",
        "longitude": "77.2848972",
        "id": "160"
    },
    {
        "name": "Lakshmi Motors, Velachery",
        "state": "TamilNadu",
        "city": "Chennai",
        "address": "42, Velachery Rd, Guindy National Park, Guindy, Chennai, Tamil Nadu",
        "lattitude": "13.0068975",
        "longitude": "80.2208424",
        "id": "161"
    },
    {
        "name": "Mg FPL Vehicles Annasali Nandnam Charging Station",
        "state": "TamilNadu",
        "city": "Chennai",
        "address": "No. 824, 2, Anna Salai, Sadras, Nandanam, Chennai, Tamil Nadu",
        "lattitude": "13.0481744",
        "longitude": "80.2496475",
        "id": "162"
    },
    {
        "name": "MG JAi Ganesh Autocars Charging Station",
        "state": "Gujarat",
        "city": "Rajkot",
        "address": "Survey No 215, Shri Balvi House Revenue Kothariya, opposite Krishna Park, Amrut Udhyog Nagar, Rajkot, Gujarat",
        "lattitude": "22.234444",
        "longitude": "70.801194",
        "id": "163"
    },
    {
        "name": "Muthoot Automotive Kollam",
        "state": "Kerala",
        "city": "Kollam",
        "address": "Machoos Properties, Bypass, near Medicity Hospital, Mylapure, Mevaram, Kollam, Kerala",
        "lattitude": "8.873755",
        "longitude": "76.6410723",
        "id": "164"
    },
    {
        "name": "Panchjanya - Bhosari - CCS",
        "state": "Maharashtra",
        "city": "Pimpri-Chinchwad",
        "address": "Wakad - Bhosari BRTS Rd, Century Enka Colony, Bhosari, Pimpri-Chinchwad, Maharashtra",
        "lattitude": "18.61586",
        "longitude": "73.8474935",
        "id": "165"
    },
    {
        "name": "Shiv Shanker Motors, Hukumpet",
        "state": "AndhraPradesh",
        "city": "VIsakhapatnam",
        "address": "36-93-205\/13, 4, NH16, Jawaharlal Nagar, Indira Nagar, Kothavada, Kancharapalem, Visakhapatnam, Andhra Pradesh",
        "lattitude": "17.7356241",
        "longitude": "83.2767608",
        "id": "166"
    },
    {
        "name": "SR Tranzcars, Saibaba Koil",
        "state": "TamiNadu",
        "city": "Coimbatore",
        "address": "1142a, Mettupalayam Rd, Nesavaalar Colony, Saibaba Koil, Coimbatore, Tamil Nadu",
        "lattitude": "11.0229439",
        "longitude": "76.9511688",
        "id": "167"
    },
    {
        "name": "Tanishq Cathedral Rd, Gopalapuram Charging Station",
        "state": "TamilNadu",
        "city": "Chennai",
        "address": "100\/48, Cathedral Rd, Gopalapuram, Chennai, Tamil Nadu",
        "lattitude": "13.0467233",
        "longitude": "80.2554136",
        "id": "168"
    },
    {
        "name": "Tata Motors Cars Showroom - Kropex Auto, Hosur Main Road",
        "state": "Karnataka",
        "city": "Bengaluru",
        "address": "No 49, 1, Hosur Rd, Aishwarya Crystal Layout, Singasandra, Bengaluru, Karnataka 560068",
        "lattitude": "12.871773",
        "longitude": "77.651106",
        "id": "169"
    },
    {
        "name": "Terry's Super Market",
        "state": "Goa",
        "city": "Penha de Franu00e7a,",
        "address": "Alto- Betim Porvorim, Penha de Franu00e7a, Goa",
        "lattitude": "15.5064156",
        "longitude": "73.8281319",
        "id": "170"
    },
    {
        "name": "TML ABC Autolink Ranoli GIDC",
        "state": "Gujarat",
        "city": "Vadodara",
        "address": "Ranoli GIDC, Ranoli, Vadodara, Gujarat",
        "lattitude": "22.4010072",
        "longitude": "73.1379109",
        "id": "171"
    },
    {
        "name": "TML Basudeb Auto Shanti Nagar Charging station",
        "state": "Jharkhand",
        "city": "Ranchi",
        "address": "11, Kokar Industrial Area, Shanti Nagar, Ranchi, Jharkhand",
        "lattitude": "23.3730871",
        "longitude": "85.3509321",
        "id": "172"
    },
    {
        "name": "TML Malwa Automobiles Prashant Vihar Charging Station",
        "state": "Delhi",
        "city": "Rohini",
        "address": "A-1\/16, A Block, Prashant Vihar, Sector 14, Rohini, Delhi",
        "lattitude": "28.7095055",
        "longitude": "77.1354359",
        "id": "173"
    },
    {
        "name": "Trivandrum Motors Pvt. Ltd.",
        "state": "Kerala",
        "city": "Thiruvananthapuram",
        "address": "BEHIND AMBALATHARA MILMA DIARY, POONTHURA, Kazhakootam - Kovalam Bypass Rd, Ambalathara, Thiruvananthapuram, Kerala",
        "lattitude": "8.4556247",
        "longitude": "76.9456323",
        "id": "174"
    },
    {
        "name": "Uniworld City New Town Charging Station",
        "state": "WestBengal",
        "city": "kolkata",
        "address": "Tower 1, Uniworld City, Newtown, New Town, West Bengal 700156",
        "lattitude": "22.6246559",
        "longitude": "88.49088053",
        "id": "175"
    },
    {
        "name": "TC Motors, Domjur Charging station",
        "state": "WestBengal",
        "city": "kolkata",
        "address": "Ground Floor NH 6, Salap More, Domjur Near Kolkatta, West International City, Howrah, West Bengal 711403",
        "lattitude": "22.61465057",
        "longitude": "88.27318444",
        "id": "176"
    },
    {
        "name": "Sara Automobile Surajmandal Charging station",
        "state": "Bihar",
        "city": "gaya",
        "address": "Grand Trunk Rd, Nanhu Bigha, Bihar 824220",
        "lattitude": "24.5251309",
        "longitude": "84.93219058",
        "id": "177"
    },
    {
        "name": "Brookfields Mall",
        "state": "Tamil Nadu",
        "city": "Coimbatore",
        "address": "Parking, BrookefieldsMall, B1, Dr Krishnasamy Mudaliyar Rd, Ram Nagar, Coimbatore, Tamil Nadu 641001",
        "lattitude": "11.00902",
        "longitude": "76.95997",
        "id": "178"
    },
    {
        "name": "Sree Saravana Bhavan",
        "state": "Tamil Nadu",
        "city": "Sankari",
        "address": "Near Salem Toll Gate, Vaikundam, Sankari, Tamil Nadu 637103",
        "lattitude": "11.5213",
        "longitude": "77.93434",
        "id": "179"
    },
    {
        "name": "Zeon Office",
        "state": "Tamil Nadu",
        "city": "Tiruppur",
        "address": "167, Union Mill Road Near 12R Kalyana mandapam, Tiruppur, Tamil Nadu 641601",
        "lattitude": "11.10635",
        "longitude": "77.35038",
        "id": "180"
    },
    {
        "name": "Sri Sakthi Cinemas",
        "state": "Tamil Nadu",
        "city": "Tiruppur",
        "address": "Sri Sakthi Cinemas, 256, Union Mill Rd, KPN Colony, Valipalayam, Tiruppur, Tamil Nadu 641601",
        "lattitude": "11.10618",
        "longitude": "77.35042",
        "id": "181"
    },
    {
        "name": "GRT Hotels",
        "state": "Tamil Nadu",
        "city": "Yercaud",
        "address": "Great Trails Yercaud by GRT Hotels, 20th Hairpin Bend, Main Road, Yercaud, Tamil Nadu 636602",
        "lattitude": "11.77929",
        "longitude": "78.1987",
        "id": "182"
    },
    {
        "name": "Adyar ananda bhavan",
        "state": "Tamil Nadu",
        "city": "Attur",
        "address": "NH79, Thulakanoor, Attur, Tamil Nadu 636141",
        "lattitude": "11.593",
        "longitude": "78.62675",
        "id": "183"
    },
    {
        "name": "Mall of mysore",
        "state": "Karnataka",
        "city": "Mysuru",
        "address": "Mall Of Mysore No.C-1, M.G Road Indira Nagar, Nazarbad Mohalla, Extension, Mysuru, Karnataka 570010",
        "lattitude": "12.29774286",
        "longitude": "76.66466775",
        "id": "184"
    },
    {
        "name": "The Forum mall",
        "state": "Karnataka",
        "city": "Bengaluru",
        "address": "The Forum Mall, Hosur Rd, Koramangala, Bengaluru, Karnataka 560095",
        "lattitude": "12.93544",
        "longitude": "77.6115",
        "id": "185"
    },
    {
        "name": "The Forum mall",
        "state": "Karnataka",
        "city": "Bengaluru",
        "address": "The Forum Mall, Hosur Rd, Koramangala, Bengaluru, Karnataka 560095",
        "lattitude": "12.93544",
        "longitude": "77.6115",
        "id": "186"
    },
    {
        "name": "Hotel Gem Park",
        "state": "Tamil Nadu",
        "city": "Ooty",
        "address": "Sheddon Road, Pudumund Ooty, Tamilnadu 643001",
        "lattitude": "11.42014319",
        "longitude": "76.70313591",
        "id": "187"
    },
    {
        "name": "Hotel surya complex",
        "state": "Tamil Nadu",
        "city": "Krishnagiri",
        "address": "Hotel Surya Complex NH 44, Krishnagiri, Bengaluru Highway, Polupalli, Tamil Nadu 635115",
        "lattitude": "12.58229",
        "longitude": "78.15705",
        "id": "188"
    },
    {
        "name": "Chambal MotoCorp, Udaipur",
        "state": "Rajasthan",
        "city": "Udaipur",
        "address": "Plot No 3 and, 4, Panchsheel Marg, Surajpole, Udaipur, Rajasthan 313001",
        "lattitude": "24.5813910958158",
        "longitude": "73.6975982682541",
        "id": "189"
    },
    {
        "name": "TML Sara Automobile dobhi charging station",
        "state": "Bihar",
        "city": "Gaya",
        "address": "Sara Automobile Pvt Ltd Eicher agency, , opp punjab national bank, bihar 824201",
        "lattitude": "24.5250847233714",
        "longitude": "84.9321118724815",
        "id": "190"
    },
    {
        "name": "TML Sree auto gubbi gate tumakuru Charging Station",
        "state": "Karnataka",
        "city": "Tumakuru",
        "address": "No 1 BH Road Near Gubbi, Gate, Tumakuru, Karnataka 572107",
        "lattitude": "13.3802422031909",
        "longitude": "77.0866254070017",
        "id": "191"
    },
    {
        "name": "MG PPS Motors Uchapatti Madurai Charging Station",
        "state": "Tamil Nadu",
        "city": "Madurai",
        "address": "Shed No D-23, Nilaiyur first bit, Uchapatti, thirumangalam, madurai, Tamil nadu, 625008",
        "lattitude": "9.868615589",
        "longitude": "78.0215976060576",
        "id": "192"
    },
    {
        "name": "FPL Vehicles Perumugai",
        "state": "Tamil Nadu",
        "city": "Vellore",
        "address": "No 33\/5A1, Chennai Bangalore Highway, Perumugai, Tamil Nadu 632009",
        "lattitude": "12.9491237477248",
        "longitude": "79.2006471184122",
        "id": "193"
    },
    {
        "name": "TML Ashok Auto sales Civil lines",
        "state": "Uttar Pradesh",
        "city": "Agra",
        "address": "119-120\/8, Sanjay Palace, Sanjay Place, Civil Lines, Agra, Uttar Pradesh 282002",
        "lattitude": "27.2006451695444",
        "longitude": "78.008244601394",
        "id": "194"
    },
    {
        "name": "Hotel Dreamland Mahableshwar Charger",
        "state": "Maharashtra",
        "city": "Mahableshwar",
        "address": "Hotel dream land, behind ST bus stand, Mahableshwar, Maharashtra",
        "lattitude": "17.9258532005629",
        "longitude": "73.6555440323019",
        "id": "195"
    },
    {
        "name": "Zeon Charging Station Salem",
        "state": "Tamil Nadu",
        "city": "Salem",
        "address": "Near Sankagiri Toll, Tamil Nadu 637103 Phone No - +914446314004",
        "lattitude": "11.519275448150031",
        "longitude": "77.9347375",
        "id": "196"
    },
    {
        "name": "IOCL Nature park Makalhati charging station",
        "state": "West Bengal",
        "city": "Kolkata",
        "address": "Makalhati Mauza, Kolkata, West Bengal 700088",
        "lattitude": "22.5230832322422",
        "longitude": "88.2910409465527",
        "id": "197"
    },
    {
        "name": "IOCL Shilposree filling Alipore Charging Station",
        "state": "West Bengal",
        "city": "Kolkata",
        "address": "Alipore Rd, Alipore, Kolkata, West Bengal 700027",
        "lattitude": "22.5226481564681",
        "longitude": "88.3348624578831",
        "id": "198"
    },
    {
        "name": "IOCL drive In Dutta Bagan Charging Station",
        "state": "West Bengal",
        "city": "Kolkata",
        "address": "Khudiram Bose Rd, Dutta Bagan, Belgachia, Kolkata, West Bengal 700037",
        "lattitude": "22.6087576309034",
        "longitude": "88.3922794899459",
        "id": "199"
    },
    {
        "name": "IOCL Dwarka Service, Rajbari Dum dum Charging station",
        "state": "West Bengal",
        "city": "Kolkata",
        "address": "Jessore Rd, Post Office Rd, Mahendra Colony, Gora Bazar, Rajbari, Dum Dum, Kolkata, West Bengal 700028",
        "lattitude": "22.6319888039941",
        "longitude": "88.4214050986271",
        "id": "200"
    },
    {
        "name": "Galleria | Statiq Charging Station 7002",
        "state": "Haryana",
        "city": "Gurugram",
        "address": "In front of Nathu's, Galleria Market, DLF Phase IV, Sector 28, Gurugram, Haryana 122022",
        "lattitude": "28.467452",
        "longitude": "77.0814618",
        "id": "201"
    },
    {
        "name": "Neelkanth Star Karnal, NH 44| Statiq Charging Station 7001",
        "state": "Haryana",
        "city": "Karnal",
        "address": "Neelkanth Star, NH 44, in front of Neelkanth Star Karnal, Gharunda, Kutail, Haryana 132114",
        "lattitude": "29.6019676",
        "longitude": "76.9797907",
        "id": "202"
    },
    {
        "name": "Highway Express NH, 48 | Statiq Charging Station 7003",
        "state": "Rajasthan",
        "city": "Behror",
        "address": "Hotel Highway Xpress Delhi Side, Behror Sherpur Jaipur to Delhi Road Behror Midway, Behror, Rajasthan 301701",
        "lattitude": "27.8741681",
        "longitude": "76.2740281",
        "id": "203"
    },
    {
        "name": "Fun and Food Carnival NH, 58 | Statiq Charging Station 7004",
        "state": "Uttar Pradesh",
        "city": "Bhainsi",
        "address": "Fun and Food Carnival, NH 58, Khatauli Bypass, Bhainsi, Uttar Pradesh 251201",
        "lattitude": "29.310069234255437",
        "longitude": "77.72196834114824",
        "id": "204"
    },
    {
        "name": "IOCL - COCO, Prabhadevi",
        "state": "Maharashtra",
        "city": "Mumbai",
        "address": "Plot No, P. N. 1207, CADELL RD. MUMBAI, PRABHADEVI CADEL RD., MUMBAI - 400022.",
        "lattitude": "19.018857",
        "longitude": "72.831076",
        "id": "205"
    },
    {
        "name": "GPS Automobiles, Tonk Road",
        "state": "Rajasthan",
        "city": "Jaipur",
        "address": "Plot No. 2& 3\/4, Choudhary Charan Singh Colony, Tonk Road, Jaipur, 302029",
        "lattitude": "26.833144",
        "longitude": "75.7951",
        "id": "206"
    },
    {
        "name": "Jitendra Wheels, Ambad",
        "state": "Maharashtra",
        "city": "Nashik",
        "address": "B-88 MIDC AMBAD, Mumbai Agra highway,Next to Hotel gateway Nashik-  422010",
        "lattitude": "19.950077",
        "longitude": "73.749175",
        "id": "207"
    },
    {
        "name": "Dhoot Motors, Adalat Road",
        "state": "Maharashtra",
        "city": "Aurangabad",
        "address": "ABC Complex, Adalat Road, Aurangabad, Maharashtra 431005Second location for survey : Adalat Road, Next to High Court, Aurangabad, Maharashtra 431005",
        "lattitude": "19.872922",
        "longitude": "75.318613",
        "id": "208"
    },
    {
        "name": "Arise Autoz, Narwal Byepass",
        "state": "Jammu",
        "city": "Jammu",
        "address": "Arise Autoz Pvt Ltd, Mailk Market , Narwal Byepass Jammu-180016",
        "lattitude": "32.70661",
        "longitude": "74.89568",
        "id": "209"
    },
    {
        "name": "Mahanagar Gas Limited, Wadala",
        "state": "Maharashtra",
        "city": "Mumbai",
        "address": "MGL Terminal, opposite Anik Depot, Wadala, Mumbai, Maharashtra 400022",
        "lattitude": "19.0472567",
        "longitude": "72.8783829",
        "id": "210"
    },
    {
        "name": "Sarath City Capital Mall, Whitefields",
        "state": "Telangana",
        "city": "Hyderabad",
        "address": "Sarath City Capital Mall, Whitefields, Gachibowli-Miyapur Road, Hyderbad 500084",
        "lattitude": "17.457774",
        "longitude": "78.36396",
        "id": "211"
    },
    {
        "name": "IOCL - COCO, Jungpura",
        "state": "Delhi",
        "city": "Delhi",
        "address": "Lala Lajpat Rai Marg, Jangpura, Nizamuddin West, New Delhi- 110014",
        "lattitude": "28.587135",
        "longitude": "77.241353",
        "id": "212"
    },
    {
        "name": "IOCL - RK Service Station, ChanakyaPuri",
        "state": "Delhi",
        "city": "Delhi",
        "address": "Vinay Marg, ChanakyaPuri, New Delhi - 110021",
        "lattitude": "28.58342",
        "longitude": "77.191319",
        "id": "213"
    },
    {
        "name": "Croma u2013 MVR Complex, Waltair Uplands",
        "state": "Andhra Pradesh",
        "city": "Vizag",
        "address": "Ground & First floor, MVR # 10-1-39\/B&C, Siripuram Cir, opp. Rock Park, Waltair Uplands, Visakhapatnam, Andhra Pradesh 530003",
        "lattitude": "17.725417",
        "longitude": "83.315175",
        "id": "214"
    },
    {
        "name": "BHASIN VENTURES, Telibandha",
        "state": "Chhattisgarh",
        "city": "Raipur",
        "address": "NH-6, NEAR CHOKRA NALA, Labhandi Rd, opp. M.S. PETROL PUMP P.O, Ravigram, Telibandha, Raipur, Chhattisgarh 492006",
        "lattitude": "21.2378172",
        "longitude": "81.6896148",
        "id": "215"
    },
    {
        "name": "IOCL - COCO Niti Marg, Chanakyapuri",
        "state": "Delhi",
        "city": "Delhi",
        "address": "Niti Marg, ChanakyaPuri, New Delhi-110021",
        "lattitude": "28.599629",
        "longitude": "77.195806",
        "id": "216"
    },
    {
        "name": "Varenyam Motor Car, Industrial Area",
        "state": "Madhya Pradesh",
        "city": "Bhopal",
        "address": "56-57 JK Road Govindpura, Sector A, Govindpura Industrial Area, Bhopal, Madhya Pradesh 462023",
        "lattitude": "23.259006",
        "longitude": "77.456769",
        "id": "217"
    },
    {
        "name": "IOCL Thiruvonam fuels, Mankavu",
        "state": "Kerala",
        "city": "Palakkad",
        "address": "20\/262, Coimbatore Rd, Kalvakulam, Mankavu, Palakkad, Kerala 678013",
        "lattitude": "10.769908",
        "longitude": "76.668149",
        "id": "218"
    },
    {
        "name": "Palladium, Lower Parel",
        "state": "Maharashtra",
        "city": "Mumbai",
        "address": "462, Tulsi Pipe Rd, Lower Parel, Mumbai, Maharashtra 400013",
        "lattitude": "18.9940072",
        "longitude": "72.8251406",
        "id": "219"
    },
    {
        "name": "Phoenix Market City, Kurla (W)",
        "state": "Maharashtra",
        "city": "Mumbai",
        "address": "LBS Rd, Kamani, Kurla West, Kurla, Mumbai, Maharashtra 400070",
        "lattitude": "19.0861629",
        "longitude": "72.8893698",
        "id": "220"
    },
    {
        "name": "Phoenix Market City, Kurla (W)",
        "state": "Maharashtra",
        "city": "Mumbai",
        "address": "LBS Rd, Kamani, Kurla West, Kurla, Mumbai, Maharashtra 400070",
        "lattitude": "19.0861629",
        "longitude": "72.8893698",
        "id": "221"
    },
    {
        "name": "Balajee Auto, Aundh",
        "state": "Maharashtra",
        "city": "Pune",
        "address": "Phase 2, Siddarth Nagar Society, Aundh, Pune, Maharashtra 411007",
        "lattitude": "18.567199",
        "longitude": "73.812297",
        "id": "222"
    },
    {
        "name": "Balajee Auto, Aundh",
        "state": "Maharashtra",
        "city": "Pune",
        "address": "Phase 2, Siddarth Nagar Society, Aundh, Pune, Maharashtra 411007",
        "lattitude": "18.567199",
        "longitude": "73.812297",
        "id": "223"
    },
    {
        "name": "Vikarsh Nano technology, Dhangarwadi",
        "state": "Maharashtra",
        "city": "Satara",
        "address": "Vikarsh Nano technology & Alloys pvt ltd Gat No 273&274 Dhangarwadi village Tal- Khandala, Shirwal Dist- Satara 412801",
        "lattitude": "18.11289",
        "longitude": "73.98985",
        "id": "224"
    },
    {
        "name": "Vikarsh Nano technology, Dhangarwadi",
        "state": "Maharashtra",
        "city": "Satara",
        "address": "Vikarsh Nano technology & Alloys pvt ltd Gat No 273&274 Dhangarwadi village Tal- Khandala, Shirwal Dist- Satara 412801",
        "lattitude": "18.11289",
        "longitude": "73.98985",
        "id": "225"
    },
    {
        "name": "IOCL - MC2, Industrial Area II",
        "state": "Chandigarh",
        "city": "Chandigarh",
        "address": "Indian OIL - MC 2 , Industrial area Phase-II MC Site, CHANDIGARH TOZIRAKPUR ROAD AT INDUSTRIAL AREA, PHASE-II, CHANDIGARH (U.T.), Chandigarh, PIN: 160002",
        "lattitude": "30.69649",
        "longitude": "76.79662",
        "id": "226"
    },
    {
        "name": "IOCL - Fortune Service Centre, Rohini",
        "state": "Delhi",
        "city": "Delhi",
        "address": "Block A, Sector 19, Rohini, Delhi, 110085",
        "lattitude": "28.727309",
        "longitude": "77.142992",
        "id": "227"
    },
    {
        "name": "IOCL - COCO WRD, Agarkar Nagar",
        "state": "Maharashtra",
        "city": "Pune",
        "address": "Agarkar Nagar, Pune, Maharashtra 411001",
        "lattitude": "18.5269679",
        "longitude": "73.8655123",
        "id": "228"
    },
    {
        "name": "IOCL - BK Petroleum , Hinjewadi Pune",
        "state": "Maharashtra",
        "city": "Pune",
        "address": "Hinjawadi Rd, Hinjawadi Village, Hinjawadi, Pimpri-Chinchwad, Maharashtra 411057",
        "lattitude": "18.591123",
        "longitude": "73.748939",
        "id": "229"
    },
    {
        "name": "IOCL - BK Petroleum , Hinjewadi Pune",
        "state": "Maharashtra",
        "city": "Pune",
        "address": "Hinjawadi Rd, Hinjawadi Village, Hinjawadi, Pimpri-Chinchwad, Maharashtra 411057",
        "lattitude": "18.591123",
        "longitude": "73.748939",
        "id": "230"
    },
    {
        "name": "KVR Dream vehicles, Vidya Nagar",
        "state": "Kerala",
        "city": "Kasargod",
        "address": "Panalam Nayamar Moola, Alampady Manya Road, Vidya Nagar, PO, Kasaragod, Kerala 671123",
        "lattitude": "12.51382323",
        "longitude": "75.02713173",
        "id": "231"
    },
    {
        "name": "IOCL COCO Chengampalli, Salem-Kochi Highway",
        "state": "Tamil Nadu",
        "city": "Chengampalli",
        "address": "Salem - Kochi Hwy, Vadamugam Kangayapalayam, Tamil Nadu 638812",
        "lattitude": "11.213022",
        "longitude": "77.441968",
        "id": "232"
    },
    {
        "name": "Hotel Casa Fedora, Lonavala",
        "state": "Maharashtra",
        "city": "Lonavala",
        "address": "Gate No 262\/1 Beside Ashoka stambh, Kusgaon Lonavala Maharashtra",
        "lattitude": "18.738021",
        "longitude": "73.429905",
        "id": "233"
    },
    {
        "name": "Hotel Vididhi, Kothagudam",
        "state": "Telangana",
        "city": "Madgulapally",
        "address": "Survey No. 173\/2, 174\/6, State Highway 2 NAM Expressway, Miryalaguda Highway Near Madugulapally Toll Plaza Kothagudam, Village, Madgulapally, Telangana 508247",
        "lattitude": "16.991031",
        "longitude": "79.44047",
        "id": "234"
    },
    {
        "name": "Hyway Lounge u2013 Yelakala, NH 44 Rudrampeta",
        "state": "Andhra Pradesh",
        "city": "Anantapuram",
        "address": "Survey No 160\/P, NH 44; Hyderabad u2013 Bangalore highway, Mandal Rudrampeta, Anantapuram, Andhra Pradesh 515 004",
        "lattitude": "14.657376",
        "longitude": "77.5814",
        "id": "235"
    },
    {
        "name": "A 5 Hotel, Gudur",
        "state": "Andhra Pradesh",
        "city": "Gudur",
        "address": "NH16, near Tirumala Dairy, Gudur, Andhra Pradesh 524410",
        "lattitude": "14.085915",
        "longitude": "79.889563",
        "id": "236"
    },
    {
        "name": "IOCL COCO u2013 Extoll College Br., Bhawadita Kalan",
        "state": "Madhya Pradesh",
        "city": "Bhopal",
        "address": "80\/2\/1\/1\/2 Bhawadiya Kalan, Bhopal 462026",
        "lattitude": "23.182404",
        "longitude": "77.432496",
        "id": "237"
    },
    {
        "name": "Krishna Car, Kharagpur City Rd",
        "state": "West Bengal",
        "city": "Kharagpur",
        "address": "ARMAN BUILDING, Kharagpur City Rd, Inda, Kharagpur, West Bengal 721305",
        "lattitude": "22.367915",
        "longitude": "87.339354",
        "id": "238"
    },
    {
        "name": "IOCL - SUJIT AUTOMOBILES, Bangalore-Kanyakumari Road",
        "state": "Maharashtra",
        "city": "Butibori",
        "address": "Bangalore - Salem - Madurai - Kanyakumari Road, Butibori, Maharashtra 441108",
        "lattitude": "20.92258656",
        "longitude": "78.99986387",
        "id": "239"
    },
    {
        "name": "IOCL - MK Petroleum, Thazhe Chovva",
        "state": "Kerala",
        "city": "Kannur",
        "address": "Indian Oil Dealer, Bypass Road, Thazhe Chovva, Kannur - 670018",
        "lattitude": "11.860265",
        "longitude": "75.414409",
        "id": "240"
    },
    {
        "name": "IOCL - Mayyazhi Petroleum, NH 66 MAin Road",
        "state": "Kerala",
        "city": "Mahe",
        "address": "Indian Oil Dealer, NH66 Main Road, Near RC Church, Mahe - 673310",
        "lattitude": "11.703759",
        "longitude": "75.535396",
        "id": "241"
    },
    {
        "name": "IOCL - Top Fuels, Karanthakkad",
        "state": "Kerala",
        "city": "Kasargod",
        "address": "Indian Oil Dealer, Karanthakkad, Nr.Fire Station, Kasargod - 671121",
        "lattitude": "12.509436",
        "longitude": "74.986061",
        "id": "242"
    },
    {
        "name": "IOCL Sigma enterprises, Kavumpuram",
        "state": "Kerala",
        "city": "Valanchery",
        "address": "NH 66, Manjeri, Kavumpuram, Kerala 676552",
        "lattitude": "10.89826",
        "longitude": "76.061104",
        "id": "243"
    },
    {
        "name": "IOCL - Jyothi Agencies, Aswani Hospital Jn",
        "state": "Kerala",
        "city": "Thrissur",
        "address": "INDIAN OIL DEALER ASWANI HOSPITAL JN THRISSUR THRISSUR DISTRICT",
        "lattitude": "10.539266",
        "longitude": "76.215215",
        "id": "244"
    },
    {
        "name": "IOCL - Sheron Travels, Thodupuzha",
        "state": "Kerala",
        "city": "Idukki",
        "address": "SH40, Thodupuzha, Kerala 685584",
        "lattitude": "9.892182",
        "longitude": "76.706886",
        "id": "245",
        "reports": [
            {
                "name": "vic",
                "report": "Defective",
                "date": "2023-06-19"
            }
        ],
        "report_count": 1,
        "comments": [
            {
                "name": "vic",
                "comment": "",
                "date": "2023-06-19",
                "rating": "3"
            },
            {
                "name": "vic",
                "comment": "",
                "date": "2023-06-19",
                "rating": "3"
            },
            {
                "name": "vic",
                "comment": "",
                "date": "2023-06-19",
                "rating": "3"
            },
            {
                "name": "akshay12",
                "comment": "good",
                "date": "2023-06-20",
                "rating": "3"
            }
        ],
        "responses": 4,
        "rating": "3.00"
    },
    {
        "name": "IOCL Chandra Fuels, SH 40 Kottankulangara",
        "state": "Kerala",
        "city": "Aleppey",
        "address": "SH40, Kottankulangara, Alappuzha, Kerala 688006",
        "lattitude": "9.510698",
        "longitude": "76.339209",
        "id": "246"
    },
    {
        "name": "IOCL - Pattathuvila Fuels, Kadappakada",
        "state": "Kerala",
        "city": "Kollam",
        "address": "PATTATHUVILA FUELS INDIANOIL DEALER KADAPPAKADA P.O, Kollam, Kerala 691008",
        "lattitude": "8.894639",
        "longitude": "76.606423",
        "id": "247"
    },
    {
        "name": "IOCL - Malayalam Fuels, Kodimatha",
        "state": "Kerala",
        "city": "Kottayam",
        "address": "Kodimatha, Kottayam, Kerala 686004",
        "lattitude": "9.573858",
        "longitude": "76.519282",
        "id": "248"
    },
    {
        "name": "Harsolia Brothers, Sec 28 GIDC",
        "state": "Gujarat",
        "city": "Gandhinagar",
        "address": "Plot No. 301, Sector 28 GIDC, Sector 28, Gandhinagar, Gujarat 382028",
        "lattitude": "23.254196",
        "longitude": "72.659209",
        "id": "249"
    },
    {
        "name": "Hotel Sanskruti , Trambakeshwar Rd",
        "state": "Maharashtra",
        "city": "Nashik",
        "address": "Trambakeshwar Rd, Belgaon Dhaga, Nashik, Maharashtra 422007",
        "lattitude": "19.973146",
        "longitude": "73.68105",
        "id": "250"
    },
    {
        "name": "IOCL Manjalpur, GIDC Rd Manjalpur",
        "state": "Gujarat",
        "city": "Vadodara",
        "address": "312, GIDC Rd, Beside Om Pippadiya Hanumanji Mandir, Ghanshyam Nagar Society 2, Manjalpur, Vadodara, Gujarat 390011",
        "lattitude": "22.271793",
        "longitude": "73.190795",
        "id": "251"
    },
    {
        "name": "IOCL Kosamba, NH 8 Mangrol",
        "state": "Gujarat",
        "city": "Surat",
        "address": "INDIAN OIL DEALER SURVEY NO. 617\/A VILL:KOSAMBA NH-8 Tal: Mangrol, Surat-394120",
        "lattitude": "21.436471",
        "longitude": "72.970594",
        "id": "252"
    },
    {
        "name": "IOCL - Citi Fuels, Virender Nagar",
        "state": "Delhi",
        "city": "Delhi",
        "address": "OPP.-VIRENDER NAGAR NEAR BHARATI COLLEGE NEW DELHI",
        "lattitude": "28.622486",
        "longitude": "77.09547",
        "id": "253"
    },
    {
        "name": "IOCL - Gay Service Station, Azadpur",
        "state": "Delhi",
        "city": "Delhi",
        "address": "Near Azadpur, New Delhi,110033",
        "lattitude": "28.703312",
        "longitude": "77.181109",
        "id": "254"
    },
    {
        "name": "Datson Electronics, Gorhe",
        "state": "Maharashtra",
        "city": "Pune",
        "address": "M\/s. Datson Electronics pvt ltd Gat.No.30. Sinhagad Road , Gorhe Budruk .Tal- Haveli Next To Savali Resort , Off Sinhagad Road . Village Gorhe . Pune - 411025.",
        "lattitude": "18.423343",
        "longitude": "73.754875",
        "id": "255"
    },
    {
        "name": "Ace Kudale Cycles, Manjri  Bk",
        "state": "Maharashtra",
        "city": "Pune",
        "address": "Manjri Bk, Pune, Maharashtra 412307",
        "lattitude": "18.4957722",
        "longitude": "73.97893593",
        "id": "256"
    },
    {
        "name": "Ace Kudale Cycles, Manjri  Bk",
        "state": "Maharashtra",
        "city": "Pune",
        "address": "Manjri Bk, Pune, Maharashtra 412307",
        "lattitude": "18.4957722",
        "longitude": "73.97893593",
        "id": "257"
    },
    {
        "name": "ARDEE MALL, Sec 52 Gurgaon",
        "state": "Haryana",
        "city": "Gurgaon",
        "address": "Ardee City Road, Sector 52, Gurgaon-122022",
        "lattitude": "28.444672",
        "longitude": "77.08082",
        "id": "258"
    },
    {
        "name": "ARDEE MALL, Sec 52 Gurgaon",
        "state": "Haryana",
        "city": "Gurgaon",
        "address": "Ardee City Road, Sector 52, Gurgaon-122022",
        "lattitude": "28.444672",
        "longitude": "77.08082",
        "id": "259"
    },
    {
        "name": "ARDEE MALL, Sec 52 Gurgaon",
        "state": "Haryana",
        "city": "Gurgaon",
        "address": "Ardee City Road, Sector 52, Gurgaon-122022",
        "lattitude": "28.444672",
        "longitude": "77.08082",
        "id": "260"
    },
    {
        "name": "ARDEE MALL, Sec 52 Gurgaon",
        "state": "Haryana",
        "city": "Gurgaon",
        "address": "Ardee City Road, Sector 52, Gurgaon-122022",
        "lattitude": "28.444672",
        "longitude": "77.08082",
        "id": "261"
    },
    {
        "name": "Keshva Motors Nahur West",
        "state": "Maharashtra",
        "city": "Mumbai",
        "address": "Shop Number 10 & 11 Marathon Max, Mulund Goregaon Link Rd, Nahur West, Mumbai, 400080",
        "lattitude": "19.1639849",
        "longitude": "72.9384197",
        "id": "262"
    },
    {
        "name": "Brookfield, Powai",
        "state": "Maharashtra",
        "city": "Mumbai",
        "address": "Spectra, High St, Hiranandani Gardens, Powai, Mumbai, Maharashtra 400076",
        "lattitude": "19.11637",
        "longitude": "72.91086",
        "id": "263"
    },
    {
        "name": "Brookfield, Powai",
        "state": "Maharashtra",
        "city": "Mumbai",
        "address": "Pay & Park, Central Ave, Hiranandani Gardens, Powai, Mumbai, Maharashtra 400076",
        "lattitude": "19.11644",
        "longitude": "72.90968",
        "id": "264"
    },
    {
        "name": "TML- Sterling Motors , Renuka Nagar",
        "state": "Maharashtra",
        "city": "Nashik",
        "address": "PB No 033, Old Agra Rd, Gadkari Chowk, Renuka Nagar, Nashik, Maharashtra 422001",
        "lattitude": "19.9932",
        "longitude": "73.783133",
        "id": "265"
    },
    {
        "name": "TML- Sterling Motors , Satpur",
        "state": "Maharashtra",
        "city": "Nashik",
        "address": "PB No 033, Old Agra Rd, Gadkari Chowk, Renuka Nagar, Nashik, Maharashtra 422001",
        "lattitude": "19.9932",
        "longitude": "73.783133",
        "id": "266"
    },
    {
        "name": "IOCL Kevadia, Garudeshwar",
        "state": "Gujarat",
        "city": "Kevadia",
        "address": "Survey No u2013 422, 423 Village u2013 Kevadiya, Taluka u2013 Garudeshwar District u2013 Narmada, Gujarat, 393151",
        "lattitude": "21.885704",
        "longitude": "73.688136",
        "id": "267"
    },
    {
        "name": "Jp's Food Court, Mulshi-Paud Road",
        "state": "Maharashtra",
        "city": "Valane",
        "address": "Mulshi-Paud Road, Near, Senapathy Bapat School, Valane, Maharashtra 412108",
        "lattitude": "18.528237",
        "longitude": "73.517504",
        "id": "268"
    },
    {
        "name": "IOCL Karari Fuels, NH 44 Kishangarh",
        "state": "Punjab",
        "city": "Kisangarh",
        "address": "NH 44, Kishangarh chownk, Jalandhar - Pathankot Rd, Punjab 144301",
        "lattitude": "31.431348",
        "longitude": "75.620357",
        "id": "269"
    },
    {
        "name": "Sagar Motors, Sector 5 Noida",
        "state": "Uttar Pradesh",
        "city": "Noida",
        "address": "B-123, Udhyog Marg, opp. PayTM building, B Block, Sector 5, Noida, Uttar Pradesh 201301",
        "lattitude": "28.59093",
        "longitude": "77.31969",
        "id": "270"
    },
    {
        "name": "IOCL COCO u2013 Central Jail RO, Rambagh",
        "state": "Madhya Pradesh",
        "city": "Indore",
        "address": "Snehlataganj, Indore, Madhya Pradesh 452003",
        "lattitude": "22.335789",
        "longitude": "73.173794",
        "id": "271"
    },
    {
        "name": "IOCL - Diamond Service Station, Sarada PAlly",
        "state": "West Bengal",
        "city": "Kolkata",
        "address": "Jadu Colony, Sarada Pally, Kolkata, West Bengal 700034",
        "lattitude": "22.489142",
        "longitude": "88.31441",
        "id": "272"
    },
    {
        "name": "IOCL - PAUL CHOWDHURY ENTERPRISES, Barrackpore",
        "state": "West Bengal",
        "city": "Kolkata",
        "address": "Barrackpore Trunk Rd, Vivek Nagar, Titagarh, Kolkata, West Bengal 700119",
        "lattitude": "22.733685",
        "longitude": "88.373554",
        "id": "273"
    },
    {
        "name": "Chandrani Enterprises, Bogra",
        "state": "West Bengal",
        "city": "Bardhaman",
        "address": "N\/536 BOGRA CHATTI National Highway 2 Paschim Burdwan. , Bogra, Bardhaman- 713332",
        "lattitude": "23.663888",
        "longitude": "87.057978",
        "id": "274"
    },
    {
        "name": "SS Motogen, Barwadda",
        "state": "Jharkhand",
        "city": "Dhanbad",
        "address": "NH 2 Kashitand, Nag Nagar, Barwadda, Dhanbad, Jharkhand 826004",
        "lattitude": "23.848551",
        "longitude": "86.441642",
        "id": "275"
    },
    {
        "name": "Vilux Theater , Khadki Pune",
        "state": "Maharashtra",
        "city": "Pune",
        "address": "15, Maulodina Marg, Chikhalwadi, Khadki, Pune, Maharashtra 411003",
        "lattitude": "18.56535",
        "longitude": "73.85089",
        "id": "276"
    },
    {
        "name": "IOCL COCO u2013 Rita Retail Outlet, Sarisha",
        "state": "West Bengal",
        "city": "Kolkata",
        "address": "Diamond Harbour Rd, Sarisha, West Bengal 743368",
        "lattitude": "22.256018",
        "longitude": "88.190831",
        "id": "277"
    },
    {
        "name": "Rangeet Auto, NH 31",
        "state": "West Bengal",
        "city": "Coochbehar",
        "address": "31-NH CHOKCHOKA, OPPOSITE PROVA AUTOMOBILE, NEAR CHECK POST, COOCHBEHAR, COOCH BEHAR, WEST BENGAL, 736101",
        "lattitude": "26.323416",
        "longitude": "89.484913",
        "id": "278"
    },
    {
        "name": "Tata Steel, Park Street",
        "state": "West Bengal",
        "city": "Kolkata",
        "address": "43, Jawaharlal Nehru Rd, Kankaria Estates, Park Street area, Kolkata, West Bengal 700071",
        "lattitude": "22.547449",
        "longitude": "88.349602",
        "id": "279"
    },
    {
        "name": "Orange Auto, Erragadda",
        "state": "Telangana",
        "city": "Hyderabad",
        "address": "8-3-165, Beside Gokul Theatre, Erragadda, Hyderabad u2013 500018",
        "lattitude": "17.454398",
        "longitude": "78.434575",
        "id": "280"
    },
    {
        "name": "Orange Auto, Karkhana",
        "state": "Telangana",
        "city": "Hyderabad",
        "address": "Plot No 54, Gayatri Westend Kakaguda, Karkhana, Secunderabad - 500015",
        "lattitude": "17.45848",
        "longitude": "78.5",
        "id": "281"
    },
    {
        "name": "Orange Auto, Hafeezpet",
        "state": "Telangana",
        "city": "Hyderabad",
        "address": "16ABC, Mini Industrial estate, Hafeezpet, Hyderabad, Telangana 500049",
        "lattitude": "17.490308",
        "longitude": "78.354536",
        "id": "282"
    },
    {
        "name": "KRAFT AUTO, Bokaro Industrial Area",
        "state": "Jharkhand",
        "city": "Bokaro",
        "address": "Plot no.- II\/A 88, Phase - II,Bokaro Industrial Area,Bokaro - Jharkhand 827014",
        "lattitude": "23.66473",
        "longitude": "86.073024",
        "id": "283"
    },
    {
        "name": "Shankar Motors, Deedarganj",
        "state": "Bihar",
        "city": "Patna",
        "address": "NH30 - Gaushala, Deedarganj Near Police Check Post, Patna, Bihar 800008",
        "lattitude": "25.571198",
        "longitude": "85.258655",
        "id": "284"
    },
    {
        "name": "IOCL Excel Enterprises, Allipuram",
        "state": "Andhra Pradesh",
        "city": "Vizag",
        "address": "Leelamahal, Daba Garden Rd, Dolphin Area, Daba Gardens, Allipuram, Visakhapatnam, Andhra Pradesh 530020",
        "lattitude": "17.713223",
        "longitude": "83.298767",
        "id": "285"
    },
    {
        "name": "KFC Jammu, Bari Brahmana",
        "state": "Jammu",
        "city": "Jammu",
        "address": "KfC Restaurants Sarore Adda Bridge, opposite bahu vaishno dhabha near Bari Brahmana, Jammu - 181133",
        "lattitude": "32.70532",
        "longitude": "74.88",
        "id": "286"
    },
    {
        "name": "Four Points By Sheraton, Tonk Road",
        "state": "Rajasthan",
        "city": "Jaipur",
        "address": "No. 1, City Square, Vasundhara Colony, Tonk Road, Jaipur, Rajasthan, 302016",
        "lattitude": "26.8643722",
        "longitude": "75.7957703",
        "id": "287"
    },
    {
        "name": "Four Points By Sheraton, Tonk Road",
        "state": "Rajasthan",
        "city": "Jaipur",
        "address": "No. 1, City Square, Vasundhara Colony, Tonk Road, Jaipur, Rajasthan, 302016",
        "lattitude": "26.8643722",
        "longitude": "75.7957703",
        "id": "288"
    },
    {
        "name": "Four Points by Sheraton, Chennai OMR",
        "state": "Tamil Nadu",
        "city": "Chennai",
        "address": "Survey No 169, Plot 1B and 1A, Rajiv Gandhi Salai, Kumaran Nagar, Sholinganallur, Chennai-600119,Four Points 1, Semmancheri, Chennai, Tamil Nadu 600119",
        "lattitude": "12.875613",
        "longitude": "80.227372",
        "id": "289"
    },
    {
        "name": "IOCL Indra Automobiles, Ashiyana",
        "state": "Uttar Pradesh",
        "city": "Lucknow",
        "address": "Sector I, Sector M, Ashiyana, Lucknow, Uttar Pradesh 226012",
        "lattitude": "26.7872939",
        "longitude": "80.9122196",
        "id": "290"
    },
    {
        "name": "Lexican Motors, Matigara",
        "state": "West Bengal",
        "city": "Siliguri",
        "address": "Reliance Industrial Consortium Ltd. NH 31 Baniakhari, Kusumnagar Landmark, beside Barsana Hotel, Matigara, Siliguri, West Bengal 734010",
        "lattitude": "26.729623",
        "longitude": "88.373903",
        "id": "291"
    },
    {
        "name": "Motel Mamalla, SH 49",
        "state": "Tamil Nadu",
        "city": "Mahabalipuram",
        "address": "Motel Mamalla No.77, East Coast Road, SH 49, Mahabalipuram, Tamil Nadu 603104",
        "lattitude": "12.6325138",
        "longitude": "80.1958391",
        "id": "292"
    },
    {
        "name": "Pumpkin Tales, Alwarpet",
        "state": "Tamil Nadu",
        "city": "Chennai",
        "address": "37, 20, Bheemanna Garden St, Alwarpet, Chennai, Tamil Nadu 600018",
        "lattitude": "13.033655",
        "longitude": "80.255285",
        "id": "293"
    },
    {
        "name": "Chowk Highway Service Centre, Old Mum-Pune highway",
        "state": "Maharashtra",
        "city": "Chouk",
        "address": "Nadhal, NH 48, Chouk,, Old Mumbai - Pune Hwy, Maharashtra 410206",
        "lattitude": "18.90173",
        "longitude": "73.23436",
        "id": "294"
    },
    {
        "name": "Blue Moon Highway Restaurant, Bangalore-Hyderabad Highway",
        "state": "Andhra Pradesh",
        "city": "Anantapuram",
        "address": "NH 44; Bangalore - Hyderabad  highway, 116\/1B, Midthuru, Peddavaduguru, Anantapuram, Andhra Pradesh 515405",
        "lattitude": "15.02395",
        "longitude": "77.620628",
        "id": "295"
    },
    {
        "name": "Dion Automotives, Ankuli Bye Pass Road",
        "state": "Odisha",
        "city": "Berhampur",
        "address": "Ankuli Bye Pass Road, Berhampur, Ganjam Dist ODISHA 760010",
        "lattitude": "19.298988",
        "longitude": "84.831762",
        "id": "296"
    },
    {
        "name": "Ginger Vastrapur, Drive In Road",
        "state": "Gujarat",
        "city": "Ahmedabad",
        "address": "Behind Himalaya Mall, Drive In Road, Ahmedabad - 380015",
        "lattitude": "23.04626",
        "longitude": "72.53069",
        "id": "297"
    },
    {
        "name": "Westside, Ellisbridge",
        "state": "Gujarat",
        "city": "Ahmedabad",
        "address": "Ground Floor, Abhijeet V, Netaji Rd Ellisbridge Opp. Mayor Bungalow, Ellisbridge, Ahmedabad, Gujarat 380006,+91 79 6661 0190",
        "lattitude": "23.02938",
        "longitude": "72.56142",
        "id": "298"
    },
    {
        "name": "Adishakti, Veeranpalya",
        "state": "Karnataka",
        "city": "Bangalore",
        "address": "#56, Opposite Lumbini Gardens, Veeranna Palya Ring Road , Veeranna Palya, Arabic College Post, Bengaluru, Karnataka - 560045",
        "lattitude": "13.04279",
        "longitude": "77.6093",
        "id": "299"
    },
    {
        "name": "Adishakti, Veeranpalya",
        "state": "Karnataka",
        "city": "Bangalore",
        "address": "No.46, 10th Cross Rd, West of Chord Road 2nd Stage, West of Chord Road, IInd Stage, Basaveshwar Nagar, Bengaluru, Karnataka 560079",
        "lattitude": "12.99929",
        "longitude": "77.54963",
        "id": "300"
    },
    {
        "name": "Key Motors, Kanakapura",
        "state": "Karnataka",
        "city": "Bangalore",
        "address": "No 71\/1A & 71\/7, Jaraganahalli Village Opp Temple Tree Apartment, Kanakapura Rd, Manjunath Garden, JP Nagar Phase 6, J. P. Nagar, Bengaluru, Karnataka 560078",
        "lattitude": "12.90392",
        "longitude": "77.57349",
        "id": "301"
    },
    {
        "name": "Ginger Whitefield, SAP Labs Rd",
        "state": "Karnataka",
        "city": "Bangalore",
        "address": "128, EPIP Phase II, &, SAP Labs Rd, Opp. KTPO, EPIP Zone, Whitefield, Bengaluru, Karnataka 560066",
        "lattitude": "12.97692",
        "longitude": "77.71861",
        "id": "302"
    },
    {
        "name": "Ginger Koramangala, Domlur",
        "state": "Karnataka",
        "city": "Bangalore",
        "address": "Inner Ring Road, Opp. Maruthi Infotech Koramangala, 100 Feet Rd, Krishna Reddy Layout, Amarjyoti Layout, Domlur, Bengaluru, Karnataka 560071",
        "lattitude": "12.95234",
        "longitude": "77.63997",
        "id": "303"
    },
    {
        "name": "Prerna Motors, Kudlugate",
        "state": "Karnataka",
        "city": "Bangalore",
        "address": "NO.55, HOSUR MAIN ROAD, KUDLUGATE, HONGASANDRA, NEXT TO OZONE TECH PARK, Kudlu Gate, Garebhavipalya, Garvebhavi Palya, Bengaluru, Karnataka 560068",
        "lattitude": "12.89083",
        "longitude": "77.63821",
        "id": "304"
    },
    {
        "name": "LAKSHMI Motors, Thoraipakkam",
        "state": "Tamil Nadu",
        "city": "Chennai",
        "address": "118, Okkiam, Thoraipakkam, Chennai, Tamil Nadu - 600097",
        "lattitude": "12.92976",
        "longitude": "80.23164",
        "id": "305"
    },
    {
        "name": "Ginger Vadapalani, NGO Colony",
        "state": "Tamil Nadu",
        "city": "Chennai",
        "address": "61, Inner Ring Rd, Thiru Nagar Colony, NGO Colony, Vadapalani, Chennai, Tamil Nadu 600026",
        "lattitude": "13.05647",
        "longitude": "80.21116",
        "id": "306"
    },
    {
        "name": "Tejaswi Motors, Madhapur",
        "state": "Telangana",
        "city": "Hyderabad",
        "address": "Plot No. 4\/14, Opp. Cyber Towers, KPHB Road, Madhapur, Hyderabad, Telangana - 500081",
        "lattitude": "17.45345",
        "longitude": "78.38334",
        "id": "307"
    },
    {
        "name": "Venkataramana Motors, ECIL",
        "state": "Telangana",
        "city": "Hyderabad",
        "address": "Plot No 11, Victory Plaza, ECIL X Roads, Hyderabad, Telangana - 500062",
        "lattitude": "17.48081",
        "longitude": "78.57715",
        "id": "308"
    },
    {
        "name": "Select Cars, Sanath Nagar",
        "state": "Telangana",
        "city": "Hyderabad",
        "address": "B-51, APIIC Rd, IDA Kukatpally, Sanath Nagar, Hyderabad, Telangana 500018",
        "lattitude": "17.45608",
        "longitude": "78.44656",
        "id": "309"
    },
    {
        "name": "Westside, Somajiguda",
        "state": "Telangana",
        "city": "Hyderabad",
        "address": "PLOT NO.6-3, Kmc Retail Mall, CIRCLE, 1112, near KIRTILAL JEWELLERS, Somajiguda, Hyderabad, Telangana 500082",
        "lattitude": "17.4226",
        "longitude": "78.46136",
        "id": "310"
    },
    {
        "name": "Select Cars, Alkapuri",
        "state": "Telangana",
        "city": "Hyderabad",
        "address": "ALKAPURI X ROADS, Nagole, Hyderabad, Telangana 500068",
        "lattitude": "17.3649",
        "longitude": "78.55747",
        "id": "311"
    },
    {
        "name": "Fortune Cars, Navi Mumbai",
        "state": "Maharashtra",
        "city": "Navi Mumbai",
        "address": "Plot No. D-400, TTC Industrial Area, MIDC, Near Uran Phata Signal, Nerul, Navi Mumbai, Maharashtra - 400 706",
        "lattitude": "19.03639",
        "longitude": "73.029907",
        "id": "312"
    },
    {
        "name": "Ginger Mumbai, Andheri East",
        "state": "Maharashtra",
        "city": "Mumbai",
        "address": "Teli - Gali Road, Andheri (East), Mumbai - 400069",
        "lattitude": "19.11599",
        "longitude": "72.85018",
        "id": "313"
    },
    {
        "name": "Tata Power RS, Versova",
        "state": "Maharashtra",
        "city": "Mumbai",
        "address": "KL Walawalkar Marg, Sahayog Nagar, Bhudargarh Colony, Andheri West, Mumbai, Maharashtra 400102",
        "lattitude": "19.13052",
        "longitude": "72.83056",
        "id": "314"
    },
    {
        "name": "Inderjit Cars, Andheri West",
        "state": "Maharashtra",
        "city": "Mumbai",
        "address": "1059\/1060, Adarsh nagar, near infinity mall, Off New Link Road, Andheri West, Mumbai, Maharashtra 400053",
        "lattitude": "19.14207",
        "longitude": "72.83241",
        "id": "315"
    },
    {
        "name": "Heritage Motors, Panchpakhadi",
        "state": "Maharashtra",
        "city": "Thane",
        "address": "3\/4, Meena Apartment, Panchpakhadi, Eastern Exp Highway, Thane West u00e2u0080u0093 Pokran Upvan, Thane - 400606",
        "lattitude": "19.1972",
        "longitude": "72.96321",
        "id": "316"
    },
    {
        "name": "Tata Power, Vikhroli",
        "state": "Maharashtra",
        "city": "Mumbai",
        "address": "The Tata Power Company Limited, 400 kV Project, Vikhroli Sub Station, Godrej Soap Premises, Vikhroli (East), Mumbai 400079",
        "lattitude": "19.095269",
        "longitude": "72.926195",
        "id": "317"
    },
    {
        "name": "GO AUTO\/ Treo Tata, Safdargunj",
        "state": "Delhi",
        "city": "Delhi",
        "address": "A-2\/14, Safdarjung Enclave, , Delhi, Delhi - 110029",
        "lattitude": "28.56483",
        "longitude": "77.18891",
        "id": "318"
    },